,city,Cloudiness,Country,Date,Humidity,Lat,Lng,Max_Temp,Wind_Speed
0,Punta Arenas,20,CL,2019-03-23,71,-53.16,-70.91,13.0,3.6
1,Dikson,68,RU,2019-03-23,91,73.51,80.55,-9.41,9.62
2,Kurikka,12,FI,2019-03-23,60,62.62,22.4,5.0,4.1
3,Rikitea,32,PF,2019-03-23,98,-23.12,-134.97,26.29,8.47
4,Hilo,40,US,2019-03-23,60,19.71,-155.08,24.0,2.1
5,Gouyave,40,GD,2019-03-23,74,12.16,-61.73,30.0,7.7
6,Hermanus,64,ZA,2019-03-23,85,-34.42,19.24,21.67,1.62
7,Geraldton,5,CA,2019-03-23,17,49.72,-86.95,8.0,7.2
8,Saldanha,24,PT,2019-03-23,29,41.42,-6.55,18.19,3.87
9,Mount Isa,68,AU,2019-03-23,78,-20.73,139.49,25.0,5.1
10,Hobart,75,AU,2019-03-23,63,-42.88,147.33,18.0,0.5
11,Chokurdakh,56,RU,2019-03-23,50,70.62,147.9,-27.51,1.42
12,Port Alfred,0,ZA,2019-03-23,93,-33.59,26.89,24.44,0.45
13,Saskylakh,0,RU,2019-03-23,33,71.97,114.09,-30.56,1.52
14,Ushuaia,40,AR,2019-03-23,71,-54.81,-68.31,13.0,2.6
15,Buala,48,SB,2019-03-23,100,-8.15,159.59,26.09,2.32
16,Grand Gaube,75,MU,2019-03-23,83,-20.01,57.66,27.0,4.6
17,Yerbogachen,32,RU,2019-03-23,50,61.28,108.01,-13.41,3.22
18,Lavrentiya,92,RU,2019-03-23,100,65.58,-170.99,-9.91,4.47
19,Georgetown,40,GY,2019-03-23,66,6.8,-58.16,32.0,6.2
20,Faanui,44,PF,2019-03-23,100,-16.48,-151.75,28.59,4.57
21,Saint-Philippe,1,CA,2019-03-23,68,45.36,-73.48,2.78,2.6
22,Kapaa,75,US,2019-03-23,73,22.08,-159.32,23.0,9.3
23,Souillac,0,FR,2019-03-23,36,45.6,-0.6,18.0,2.1
24,Busselton,8,AU,2019-03-23,53,-33.64,115.35,11.67,5.92
25,Nikolskoye,90,RU,2019-03-23,93,59.7,30.79,3.89,3.0
26,Vaini,0,IN,2019-03-23,85,15.34,74.49,21.09,1.37
27,Tokur,0,RU,2019-03-23,55,53.13,132.9,-21.86,1.42
28,Dunedin,68,NZ,2019-03-23,85,-45.87,170.5,15.56,1.42
29,Atocha,40,EC,2019-03-23,55,-1.22,-78.6,29.0,5.1
30,Bluff,0,AU,2019-03-23,89,-23.58,149.07,21.24,1.67
31,Vao,92,EE,2019-03-23,94,59.1,26.19,3.44,5.07
32,Angoche,20,MZ,2019-03-23,99,-16.23,39.91,28.54,5.02
33,Molochnoye,92,UA,2019-03-23,76,44.91,34.04,1.99,3.27
34,Kuytun,64,RU,2019-03-23,81,54.34,101.51,-3.01,2.27
35,Bethel,75,US,2019-03-23,74,60.79,-161.76,4.0,3.6
36,Dixon,1,US,2019-03-23,82,41.84,-89.48,11.67,2.1
37,Victoria,75,BN,2019-03-23,88,5.28,115.24,27.0,2.1
38,Nelson Bay,20,AU,2019-03-23,88,-32.72,152.14,21.11,3.1
39,Atar,0,MR,2019-03-23,27,20.52,-13.05,27.49,4.62
40,Manaure,20,CO,2019-03-23,70,11.78,-72.45,29.0,9.3
41,Mahroni,0,IN,2019-03-23,37,24.59,78.73,18.74,1.42
42,Gurjaani,90,GE,2019-03-23,70,41.75,45.79,6.0,8.7
43,Bambous Virieux,75,MU,2019-03-23,83,-20.34,57.76,27.0,4.6
44,Mogadishu,64,SO,2019-03-23,99,2.04,45.34,27.99,7.52
45,Namatanai,68,PG,2019-03-23,100,-3.66,152.44,27.49,4.47
46,Puerto Rondon,24,CO,2019-03-23,70,6.28,-71.1,30.79,4.52
47,Chara,20,GR,2019-03-23,62,39.42,22.43,12.0,2.1
48,Cape Town,0,ZA,2019-03-23,82,-33.93,18.42,21.67,4.1
49,Airai,32,TL,2019-03-23,88,-8.93,125.41,21.24,0.72
50,Meulaboh,36,ID,2019-03-23,100,4.14,96.13,25.44,1.52
51,Nemuro,0,JP,2019-03-23,100,43.32,145.57,-2.71,4.87
52,Nizwa,44,OM,2019-03-23,66,22.93,57.53,18.64,0.27
53,Yankton,90,US,2019-03-23,57,42.87,-97.4,9.44,4.6
54,Fort Nelson,75,CA,2019-03-23,69,58.81,-122.69,3.0,3.1
55,Kauhajoki,0,FI,2019-03-23,55,62.43,22.18,4.44,3.6
56,Eyl,100,SO,2019-03-23,95,7.98,49.82,26.69,5.42
57,Qaanaaq,8,GL,2019-03-23,61,77.48,-69.36,-29.76,4.47
58,Alofi,48,NU,2019-03-23,88,-19.06,-169.92,22.0,1.5
59,Mar del Plata,56,AR,2019-03-23,72,-46.43,-67.52,14.69,6.47
60,Zonguldak,8,TR,2019-03-23,82,41.25,31.83,4.99,3.92
61,Provideniya,92,RU,2019-03-23,100,64.42,-173.23,-9.41,5.47
62,Jamestown,92,AU,2019-03-23,93,-33.21,138.6,17.34,3.47
63,Nosy Varika,64,MG,2019-03-23,100,-20.58,48.53,25.09,2.62
64,Port Hedland,75,AU,2019-03-23,94,-20.31,118.58,26.0,18.0
65,Mataura,64,NZ,2019-03-23,90,-46.19,168.86,13.89,1.22
66,Avarua,80,CK,2019-03-23,78,-21.21,-159.78,28.0,1.0
67,Ponta do Sol,36,BR,2019-03-23,79,-20.63,-46.0,25.49,2.32
68,Bredasdorp,8,ZA,2019-03-23,88,-34.53,20.04,21.11,1.5
69,Arraial do Cabo,40,BR,2019-03-23,69,-22.97,-42.02,27.0,4.1
70,Kodiak,90,US,2019-03-23,25,39.95,-94.76,13.0,6.2
71,Tomatlan,0,MX,2019-03-23,45,19.93,-105.25,29.74,1.62
72,Albany,1,US,2019-03-23,58,42.65,-73.75,5.0,10.3
73,Jiblah,0,YE,2019-03-23,70,13.92,44.15,13.74,0.87
74,Cabatuan,64,PH,2019-03-23,83,16.95,121.67,21.19,1.72
75,Khatanga,0,RU,2019-03-23,48,71.98,102.47,-26.91,1.42
76,Wanning,0,AT,2019-03-23,50,48.64,13.53,13.0,1.5
77,Vardo,1,US,2019-03-23,15,39.62,-77.74,10.56,6.7
78,Goderich,0,CA,2019-03-23,68,43.74,-81.71,2.22,5.81
79,Auki,0,NG,2019-03-23,37,12.18,6.51,31.29,1.27
80,Muros,20,ES,2019-03-23,41,42.77,-9.06,18.89,4.1
81,Acari,76,BR,2019-03-23,100,-6.44,-36.64,24.49,2.12
82,Tahlequah,1,US,2019-03-23,87,35.92,-94.97,12.78,1.5
83,Tura,0,IN,2019-03-23,57,25.52,90.21,17.34,1.72
84,Terrace Bay,75,CA,2019-03-23,80,48.78,-87.1,1.0,4.1
85,Cooma,92,AU,2019-03-23,93,-36.24,149.13,14.0,1.5
86,Chikwawa,92,MW,2019-03-23,97,-16.03,34.79,22.84,2.77
87,Puerto Ayora,20,EC,2019-03-23,70,-0.74,-90.35,30.0,5.1
88,Nouadhibou,20,MR,2019-03-23,77,20.93,-17.03,20.0,8.2
89,Catalina,75,CO,2019-03-23,62,8.86,-75.38,31.0,2.12
90,Hithadhoo,68,MV,2019-03-23,100,-0.6,73.08,30.49,3.27
91,Teguldet,64,RU,2019-03-23,81,57.31,88.17,-3.56,0.52
92,Tuktoyaktuk,90,CA,2019-03-23,71,69.44,-133.03,-13.0,10.3
93,Avera,1,US,2019-03-23,22,33.19,-82.53,21.67,2.1
94,Esperance,40,TT,2019-03-23,52,10.24,-61.45,31.0,7.2
95,Sukhodol,0,RU,2019-03-23,93,53.9,51.22,-1.06,2.02
96,Gamba,0,CN,2019-03-23,41,28.28,88.52,-21.76,1.72
97,Ballina,75,IE,2019-03-23,81,54.11,-9.15,7.78,2.6
98,Bucine,0,IT,2019-03-23,28,43.48,11.61,20.0,4.6
99,Port Elizabeth,1,US,2019-03-23,31,39.31,-74.98,11.11,9.3
100,Lincoln,20,GB,2019-03-23,61,53.23,-0.54,10.0,1.5
101,Guerrero Negro,0,MX,2019-03-23,63,27.97,-114.04,20.14,2.17
102,Thompson,20,CA,2019-03-23,48,55.74,-97.86,-8.0,6.7
103,Talnakh,68,RU,2019-03-23,66,69.49,88.39,-16.51,2.42
104,Botou,0,CN,2019-03-23,28,38.08,116.55,0.69,4.22
105,East London,0,ZA,2019-03-23,83,-33.02,27.91,24.0,6.2
106,Aljezur,0,PT,2019-03-23,71,37.31,-8.8,17.78,4.22
107,Te Anau,92,NZ,2019-03-23,87,-45.41,167.72,10.49,1.37
108,Tarma,92,PE,2019-03-23,64,-11.42,-75.69,12.29,0.97
109,Fairbanks,40,US,2019-03-23,55,64.84,-147.72,5.0,2.6
110,Atuona,68,PF,2019-03-23,100,-9.8,-139.03,27.84,7.37
111,Siocon,0,PH,2019-03-23,100,11.03,124.04,25.59,6.12
112,Castro,75,CL,2019-03-23,67,-42.48,-73.76,15.0,2.6
113,Pong,20,TH,2019-03-23,79,12.95,100.98,32.78,3.1
114,Bathsheba,20,BB,2019-03-23,58,13.22,-59.52,29.0,7.7
115,Lasa,20,CY,2019-03-23,87,34.92,32.53,16.0,3.1
116,Ilulissat,75,GL,2019-03-23,36,69.22,-51.1,-20.0,5.7
117,Hofn,92,IS,2019-03-23,100,64.25,-15.21,3.04,4.12
118,Yulara,56,AU,2019-03-23,36,-25.24,130.99,27.0,4.6
119,Itarema,92,BR,2019-03-23,97,-2.92,-39.92,26.44,2.27
120,Mata,75,CU,2019-03-23,60,22.63,-79.93,24.0,6.2
121,Klaksvik,92,FO,2019-03-23,80,62.23,-6.59,5.0,5.7
122,Tateyama,88,JP,2019-03-23,94,36.66,137.31,3.33,2.37
123,Tahe,76,CN,2019-03-23,78,52.34,124.71,-9.01,0.72
124,Tiksi,48,RU,2019-03-23,68,71.64,128.87,-16.91,1.37
125,Nanortalik,24,GL,2019-03-23,100,60.14,-45.24,-4.91,7.92
126,Bonavista,12,CA,2019-03-23,74,48.65,-53.11,8.33,3.13
127,Barrow,0,AR,2019-03-23,48,-38.31,-60.23,26.34,9.57
128,Oktyabrskoye,0,RU,2019-03-23,79,56.73,85.44,1.11,1.0
129,Port-Gentil,40,GA,2019-03-23,83,-0.72,8.78,29.0,3.1
130,Arman,80,RU,2019-03-23,74,59.7,150.17,-8.16,3.92
131,Charleston,1,US,2019-03-23,25,38.35,-81.63,13.33,2.1
132,Lander,1,US,2019-03-23,29,42.83,-108.73,11.11,3.6
133,Cabo San Lucas,5,MX,2019-03-23,30,22.89,-109.91,27.78,5.1
134,Saint George,20,GR,2019-03-23,62,39.45,22.34,12.0,2.1
135,Asifabad,0,IN,2019-03-23,70,19.38,79.29,24.19,1.32
136,Fare,8,PF,2019-03-23,99,-16.7,-151.02,28.74,4.22
137,Longyearbyen,20,NO,2019-03-23,67,78.22,15.63,-7.0,6.2
138,Iqaluit,90,CA,2019-03-23,77,63.75,-68.52,-14.0,14.4
139,Yellowknife,20,CA,2019-03-23,54,62.45,-114.38,-15.0,4.1
140,Pevek,0,RU,2019-03-23,35,69.7,170.27,-30.91,1.52
141,Awjilah,24,LY,2019-03-23,46,29.14,21.3,21.29,5.87
142,Sao Joao da Barra,75,BR,2019-03-23,54,-21.64,-41.05,29.0,3.1
143,Ondjiva,44,AO,2019-03-23,34,-17.07,15.73,29.29,3.32
144,Kamenka,64,RU,2019-03-23,76,53.19,44.05,2.78,4.07
145,Solnechnyy,0,RU,2019-03-23,59,50.72,136.64,-17.01,2.12
146,Chaah,0,MY,2019-03-23,90,2.25,103.04,22.24,1.07
147,Vysha,80,RU,2019-03-23,91,53.85,42.38,0.79,3.77
148,Ilo,0,PE,2019-03-23,64,-17.65,-71.34,24.0,4.6
149,Diego de Almagro,0,CL,2019-03-23,74,-26.39,-70.05,22.74,1.62
150,Tadine,32,NC,2019-03-23,96,-21.55,167.88,26.34,7.02
151,Praia da Vitoria,40,PT,2019-03-23,62,38.73,-27.07,15.0,13.97
152,Torbay,75,CA,2019-03-23,71,47.66,-52.73,11.0,9.8
153,Porto Novo,40,BR,2019-03-23,51,-23.68,-45.44,28.0,1.5
154,Laguna,5,MX,2019-03-23,28,27.52,-110.01,23.0,3.1
155,Coihaique,20,CL,2019-03-23,51,-45.58,-72.07,16.0,3.1
156,Chuy,20,UY,2019-03-23,83,-33.69,-53.46,23.84,3.27
157,Beshpagir,0,RU,2019-03-23,86,45.02,42.37,-1.0,4.0
158,Litovko,0,RU,2019-03-23,55,49.24,135.18,-18.31,1.97
159,Camacha,75,PT,2019-03-23,67,33.08,-16.33,17.0,5.7
160,Biltine,56,TD,2019-03-23,21,14.53,20.93,30.39,2.92
161,Tasiilaq,20,GL,2019-03-23,61,65.61,-37.64,-10.0,7.2
162,Inuvik,90,CA,2019-03-23,61,68.36,-133.71,-8.0,8.2
163,Mount Pleasant,1,US,2019-03-23,56,33.16,-94.97,22.78,5.1
164,San Cristobal,40,EC,2019-03-23,59,-0.39,-78.55,23.0,5.7
165,Pengcheng,20,CN,2019-03-23,45,36.43,114.17,-0.76,1.32
166,Sangar,76,RU,2019-03-23,52,63.92,127.47,-13.76,2.92
167,Chico,90,US,2019-03-23,76,39.73,-121.84,14.0,4.1
168,Norman Wells,75,CA,2019-03-23,68,65.28,-126.83,-3.0,11.3
169,Emmett,90,US,2019-03-23,62,43.87,-116.5,15.0,1.5
170,Uarini,75,BR,2019-03-23,83,-2.98,-65.16,28.0,5.7
171,Tiznit,76,MA,2019-03-23,89,29.7,-9.73,17.29,2.62
172,Lebu,40,ET,2019-03-23,30,8.96,38.73,21.0,3.1
173,North Bend,90,US,2019-03-23,81,43.41,-124.22,12.22,3.6
174,Dicabisagan,24,PH,2019-03-23,100,17.08,122.42,20.94,3.27
175,Gashua,20,NG,2019-03-23,40,12.87,11.04,32.79,1.32
176,Beyneu,0,KZ,2019-03-23,82,45.32,55.19,4.64,2.12
177,Namibe,24,AO,2019-03-23,100,-15.19,12.15,25.69,3.02
178,Vestmannaeyjar,75,IS,2019-03-23,100,63.44,-20.27,2.0,11.8
179,Gazanjyk,0,TM,2019-03-23,90,39.24,55.52,7.84,3.42
180,Tonota,0,BW,2019-03-23,53,-21.44,27.46,23.0,3.1
181,Oktyabrskiy,0,RU,2019-03-23,79,55.61,37.97,3.0,1.17
182,Besikduzu,75,TR,2019-03-23,75,41.05,39.23,6.11,4.6
183,Port Blair,0,IN,2019-03-23,100,11.67,92.75,28.44,2.12
184,Butaritari,68,KI,2019-03-23,100,3.07,172.79,27.44,4.02
185,Uaua,64,BR,2019-03-23,89,-9.84,-39.48,26.94,2.02
186,Los Llanos de Aridane,75,ES,2019-03-23,63,28.66,-17.92,18.0,7.2
187,Ischia,0,IT,2019-03-23,43,46.03,11.25,17.78,1.0
188,Deputatskiy,0,RU,2019-03-23,0,69.3,139.9,-35.21,1.17
189,Henties Bay,0,NA,2019-03-23,89,-22.12,14.28,17.22,2.24
190,Ekibastuz,0,KZ,2019-03-23,60,51.72,75.32,-7.51,1.62
191,Pangnirtung,90,CA,2019-03-23,70,66.15,-65.72,-17.0,6.7
192,Upernavik,24,GL,2019-03-23,100,72.79,-56.15,-21.06,4.32
193,Paracuru,75,BR,2019-03-23,83,-3.41,-39.03,27.78,4.6
194,Turayf,75,SA,2019-03-23,31,31.68,38.65,18.0,3.1
195,Taoudenni,56,ML,2019-03-23,11,22.68,-3.98,29.79,3.97
196,Walvis Bay,0,NA,2019-03-23,77,-22.95,14.51,17.22,5.1
197,Kiunga,80,PG,2019-03-23,97,-6.12,141.3,22.19,1.52
198,Matay,92,EG,2019-03-23,17,28.42,30.79,28.59,8.07
199,Sitka,12,US,2019-03-23,63,37.17,-99.65,16.11,4.02
200,Kenai,90,US,2019-03-23,86,60.55,-151.26,5.0,2.6
201,Hervey Bay,0,AU,2019-03-23,94,-25.3,152.85,22.78,1.47
202,Kodino,92,RU,2019-03-23,85,63.72,39.64,0.49,7.02
203,Isiro,12,CD,2019-03-23,44,2.77,27.62,28.99,1.97
204,Parana,75,BR,2019-03-23,83,-7.52,-72.89,27.0,2.1
205,Harper,90,US,2019-03-23,93,30.3,-99.24,22.0,3.6
206,Ankang,88,CN,2019-03-23,62,32.73,108.99,3.49,0.77
207,Carutapera,80,BR,2019-03-23,85,-1.2,-46.02,28.14,4.32
208,Eureka,75,US,2019-03-23,100,40.8,-124.16,13.89,3.6
209,Carnarvon,92,ZA,2019-03-23,16,-30.97,22.13,25.94,3.32
210,Port Augusta,92,AU,2019-03-23,93,-32.49,137.76,21.67,1.57
211,San Patricio,0,PY,2019-03-23,55,-26.98,-56.83,27.59,1.47
212,Nabire,68,ID,2019-03-23,96,-3.36,135.5,20.59,0.62
213,Mantua,0,IT,2019-03-23,41,45.16,10.79,18.0,1.5
214,Bow Island,75,CA,2019-03-23,66,49.87,-111.38,12.78,1.5
215,Muyezerskiy,92,RU,2019-03-23,90,63.93,31.65,2.34,5.37
216,Verkhnyaya Toyma,48,RU,2019-03-23,88,62.24,45.0,-1.16,4.22
217,Nuevo Progreso,90,US,2019-03-23,57,26.05,-97.95,27.22,6.2
218,Sur,12,OM,2019-03-23,84,22.57,59.53,24.24,3.02
219,Vila Velha,75,BR,2019-03-23,83,-3.71,-38.6,27.78,4.6
220,Severo-Kurilsk,80,RU,2019-03-23,96,50.68,156.12,-1.06,8.32
221,Buinsk,44,RU,2019-03-23,96,54.97,48.29,0.09,1.87
222,Chapais,1,CA,2019-03-23,35,49.78,-74.86,-5.0,4.6
223,Kletskaya,48,RU,2019-03-23,80,49.31,43.06,2.78,2.68
224,Stykkisholmur,88,IS,2019-03-23,98,65.08,-22.73,2.54,7.02
225,Fort-Shevchenko,0,KZ,2019-03-23,95,44.51,50.26,5.19,3.67
226,Hambantota,40,LK,2019-03-23,100,6.12,81.12,24.0,1.0
227,Pringsewu,20,ID,2019-03-23,89,-5.36,104.98,23.84,1.07
228,Cayenne,40,GF,2019-03-23,62,4.94,-52.33,30.0,7.2
229,Shubarshi,48,KZ,2019-03-23,77,48.59,57.19,1.44,1.27
230,Boshnyakovo,12,RU,2019-03-23,95,49.65,142.17,-16.76,1.92
231,Tiarei,40,PF,2019-03-23,70,-17.53,-149.33,30.0,2.1
232,Kirakira,76,SB,2019-03-23,100,-10.46,161.92,28.94,5.02
233,Launceston,0,AU,2019-03-23,87,-41.43,147.14,15.0,6.2
234,Derzhavinsk,68,KZ,2019-03-23,89,51.1,66.31,-0.96,1.37
235,Kedrovyy,40,RU,2019-03-23,92,56.17,91.82,-3.0,1.0
236,Kurilsk,56,RU,2019-03-23,100,45.23,147.88,-5.91,5.62
237,Pemberton,76,AU,2019-03-23,92,-34.44,116.03,11.67,3.97
238,Lorengau,88,PG,2019-03-23,99,-2.02,147.27,28.04,5.57
239,Benoni,88,ZA,2019-03-23,46,-26.19,28.31,22.22,1.0
240,Bandar,76,ID,2019-03-23,96,-4.2,104.14,22.69,0.92
241,Dingle,68,PH,2019-03-23,77,11.0,122.67,25.04,5.42
242,Yarada,40,IN,2019-03-23,88,17.65,83.27,27.0,1.0
243,Leningradskiy,80,RU,2019-03-23,79,69.38,178.42,-22.26,9.07
244,Salisbury,75,GB,2019-03-23,87,51.07,-1.8,11.11,4.1
245,Hennenman,48,ZA,2019-03-23,58,-27.97,27.03,20.84,2.37
246,Heerhugowaard,90,NL,2019-03-23,75,52.66,4.83,7.78,3.6
247,Luderitz,8,NA,2019-03-23,82,-26.65,15.16,17.49,5.27
248,Waingapu,56,ID,2019-03-23,93,-9.65,120.26,24.04,2.42
249,Oranjemund,20,ZA,2019-03-23,90,-28.55,16.43,17.09,2.22
250,Mahebourg,75,MU,2019-03-23,83,-20.41,57.7,27.0,4.6
251,Cockburn Town,0,TC,2019-03-23,98,21.46,-71.14,26.44,4.57
252,Brewster,1,US,2019-03-23,42,41.76,-70.08,9.0,11.8
253,Biak,44,ID,2019-03-23,97,-0.91,122.88,26.34,1.42
254,Kaitangata,80,NZ,2019-03-23,91,-46.28,169.85,13.54,1.77
255,Husavik,0,CA,2019-03-23,68,50.56,-96.99,7.78,4.92
256,Bereda,0,ES,2019-03-23,55,43.27,-7.54,16.67,2.1
257,Cidreira,12,BR,2019-03-23,85,-30.17,-50.22,23.59,2.42
258,Saint Joseph,1,US,2019-03-23,47,39.77,-94.85,14.44,3.1
259,Carlsbad,0,CZ,2019-03-23,62,50.23,12.87,12.0,2.6
260,Jos,44,NG,2019-03-23,27,9.92,8.9,30.09,2.47
261,Micheweni,0,TZ,2019-03-23,100,-4.97,39.83,28.29,4.97
262,Lapi,92,EE,2019-03-23,93,57.91,26.99,6.0,7.2
263,Amapa,40,HN,2019-03-23,38,15.09,-87.97,31.0,9.8
264,Vanavara,0,RU,2019-03-23,65,60.35,102.28,-12.26,1.97
265,Berlevag,12,NO,2019-03-23,100,70.86,29.09,-0.91,3.02
266,Fortuna,0,ES,2019-03-23,72,38.18,-1.13,16.0,2.6
267,Longyan,92,CN,2019-03-23,99,25.1,117.03,11.89,0.67
268,Taguatinga,88,BR,2019-03-23,94,-15.83,-48.06,22.99,2.37
269,Port Keats,76,AU,2019-03-23,78,-14.25,129.55,30.59,7.52
270,Heishan,0,CN,2019-03-23,59,41.69,122.12,0.99,6.92
271,Faya,0,SA,2019-03-23,63,18.39,42.45,19.0,2.1
272,New Norfolk,75,AU,2019-03-23,63,-42.78,147.06,18.0,0.5
273,Mainit,44,PH,2019-03-23,100,9.54,125.52,24.54,5.47
274,Escanaba,1,US,2019-03-23,80,45.75,-87.06,10.0,5.1
275,Narsaq,75,GL,2019-03-23,52,60.91,-46.05,-8.0,2.6
276,Cortes,100,PH,2019-03-23,100,9.28,126.19,22.49,1.52
277,Ulladulla,8,AU,2019-03-23,78,-35.36,150.48,22.22,3.6
278,Vrangel,0,RU,2019-03-23,100,42.73,133.08,-2.26,8.47
279,Kharp,0,RU,2019-03-23,70,66.82,65.8,-14.01,2.22
280,Xining,8,CN,2019-03-23,53,36.62,101.77,-8.01,1.62
281,Bandarbeyla,36,SO,2019-03-23,100,9.49,50.81,27.24,4.22
282,Tindwari,0,IN,2019-03-23,34,25.62,80.53,20.09,2.42
283,Puerto Escondido,5,MX,2019-03-23,66,15.86,-97.07,30.0,4.1
284,Todos Santos,5,MX,2019-03-23,30,23.45,-110.23,27.78,5.1
285,San Quintin,0,PH,2019-03-23,84,17.54,120.52,17.84,1.82
286,The Valley,20,AI,2019-03-23,65,18.22,-63.06,28.33,5.7
287,Lewiston,1,US,2019-03-23,52,44.1,-70.21,8.33,7.2
288,Port Stanley,5,CA,2019-03-23,47,42.67,-81.22,5.0,5.1
289,Waiouru,48,NZ,2019-03-23,95,-39.48,175.67,9.69,1.12
290,Vanimo,56,PG,2019-03-23,98,-2.67,141.3,28.39,7.47
291,Adrar,0,DZ,2019-03-23,15,27.87,-0.29,26.0,5.1
292,Lata,20,IN,2019-03-23,61,30.78,78.62,5.69,1.32
293,Katsuura,75,JP,2019-03-23,93,33.93,134.5,3.0,2.6
294,Libertador General San Martin,92,AR,2019-03-23,87,-23.81,-64.79,19.89,1.82
295,Magadan,80,RU,2019-03-23,93,59.56,150.8,-5.86,11.12
296,Corowa,90,AU,2019-03-23,72,-36.0,146.39,20.0,4.6
297,Mana,0,RS,2019-03-23,53,43.52,20.24,11.0,1.0
298,Antofagasta,0,CL,2019-03-23,60,-23.65,-70.4,21.0,5.1
299,Grand Island,90,US,2019-03-23,81,40.92,-98.34,10.56,7.7
300,Cadillac,1,US,2019-03-23,41,44.25,-85.4,7.78,3.6
301,Sao Filipe,0,CV,2019-03-23,92,14.9,-24.5,22.19,6.82
302,Uyuni,20,BO,2019-03-23,13,-20.46,-66.82,20.69,4.37
303,Ixtapa,5,MX,2019-03-23,45,20.71,-105.21,28.0,3.6
304,Shuyskoye,56,RU,2019-03-23,83,59.37,41.03,-2.16,4.42
305,Yurginskoye,88,RU,2019-03-23,93,56.82,67.39,-0.11,1.77
306,Berdigestyakh,88,RU,2019-03-23,75,62.1,126.7,-11.81,3.02
307,Marfino,0,RU,2019-03-23,64,56.07,37.56,3.0,1.0
308,Cabanas,0,ES,2019-03-23,55,43.42,-8.16,17.22,2.1
309,Salalah,20,OM,2019-03-23,74,17.01,54.1,27.0,4.1
310,Plainview,1,US,2019-03-23,23,34.18,-101.71,19.0,7.2
311,Aksarka,0,RU,2019-03-23,72,66.56,67.8,-13.01,1.57
312,Daura,0,NG,2019-03-23,37,13.04,8.32,32.94,1.42
313,Dengzhou,36,CN,2019-03-23,74,32.69,112.08,2.74,1.42
314,Twentynine Palms,1,US,2019-03-23,34,34.14,-116.05,24.0,1.67
315,Seddon,24,NZ,2019-03-23,96,-41.67,174.07,14.44,2.32
316,Evensk,0,RU,2019-03-23,93,61.92,159.24,-7.76,8.52
317,Muravlenko,92,RU,2019-03-23,90,63.79,74.5,-3.76,3.62
318,Lima,40,PE,2019-03-23,61,-12.06,-77.04,26.0,3.6
319,Pangai,75,TO,2019-03-23,74,-19.8,-174.35,26.0,3.1
320,Fallon,1,US,2019-03-23,75,46.84,-105.12,8.0,2.32
321,Victor Harbor,75,AU,2019-03-23,82,-35.55,138.62,20.0,1.5
322,Xinzhou,0,CN,2019-03-23,64,38.41,112.73,-5.61,1.12
323,Port Lincoln,80,AU,2019-03-23,100,-34.72,135.86,16.74,1.62
324,Luba,0,PH,2019-03-23,84,17.32,120.7,17.84,1.82
325,Westport,75,IE,2019-03-23,81,53.8,-9.52,7.78,2.6
326,Vyshchetarasivka,0,UA,2019-03-23,71,47.57,34.88,3.0,6.0
327,Phek,36,IN,2019-03-23,93,25.7,94.46,11.69,0.52
328,Vangaindrano,92,MG,2019-03-23,99,-23.35,47.6,20.84,1.82
329,Rio Grande,40,BR,2019-03-23,50,-32.03,-52.1,26.0,2.1
330,Kruisfontein,0,ZA,2019-03-23,83,-34.0,24.73,21.29,4.37
331,Alegrete,0,BR,2019-03-23,58,-29.79,-55.79,27.24,2.07
332,Lagoa Vermelha,12,BR,2019-03-23,88,-28.21,-51.53,22.24,3.37
333,Seryshevo,80,RU,2019-03-23,46,51.09,128.38,-9.16,5.72
334,Tubuala,40,PA,2019-03-23,46,9.52,-79.03,33.0,5.7
335,Dombarovskiy,80,RU,2019-03-23,92,50.76,59.54,0.54,1.27
336,Vila Franca do Campo,40,PT,2019-03-23,82,37.72,-25.43,13.0,15.4
337,Mezen,92,RU,2019-03-23,81,65.85,44.24,0.84,6.37
338,Peniche,0,PT,2019-03-23,35,39.36,-9.38,21.0,4.6
339,Hovd,90,NO,2019-03-23,88,63.83,10.7,4.44,13.9
340,San Rafael,0,AR,2019-03-23,24,-34.61,-68.33,24.79,4.92
341,Yurimaguas,40,PE,2019-03-23,78,-5.9,-76.1,28.0,1.32
342,Talitsy,0,RU,2019-03-23,91,56.53,42.33,-2.36,1.92
343,Pingliang,0,CN,2019-03-23,65,35.54,106.68,-3.26,1.42
344,Galle,90,US,2019-03-23,64,29.74,-97.91,24.0,7.2
345,Paita,0,PE,2019-03-23,290,-5.09,-81.11,17.0,3.97
346,Sampit,48,ID,2019-03-23,93,-2.54,112.95,23.64,1.22
347,Comodoro Rivadavia,75,AR,2019-03-23,72,-45.87,-67.48,15.0,4.6
348,Quatre Cocos,75,MU,2019-03-23,83,-20.21,57.76,27.0,5.1
349,Savonlinna,75,FI,2019-03-23,93,61.87,28.88,2.78,3.1
350,Port Arthur,1,US,2019-03-23,46,29.9,-93.93,24.0,5.7
351,Ust-Maya,12,RU,2019-03-23,71,60.42,134.54,-24.01,1.47
352,Erenhot,0,CN,2019-03-23,66,43.65,111.97,-1.06,6.92
353,Kavieng,44,PG,2019-03-23,100,-2.57,150.8,28.69,4.57
354,Gombong,64,ID,2019-03-23,96,-7.19,109.31,22.44,0.97
355,Djambala,80,CG,2019-03-23,92,-2.55,14.76,22.99,3.87
356,Bambanglipuro,48,ID,2019-03-23,97,-7.95,110.28,22.84,1.37
357,Ahipara,64,NZ,2019-03-23,100,-35.17,173.16,15.94,1.07
358,Port Shepstone,92,ZA,2019-03-23,90,-30.74,30.45,24.49,10.32
359,Ribeira Grande,40,PT,2019-03-23,67,38.52,-28.7,14.0,3.6
360,Fort Saint James,88,CA,2019-03-23,93,54.43,-124.25,2.04,1.32
361,Grindavik,90,IS,2019-03-23,93,63.84,-22.43,2.78,5.1
362,Paraiso,5,MX,2019-03-23,13,24.01,-104.61,20.56,2.6
363,Sinnamary,92,GF,2019-03-23,87,5.38,-52.96,27.99,5.07
364,Hami,0,CN,2019-03-23,50,42.84,93.51,1.84,3.42
365,Baykit,88,RU,2019-03-23,79,61.68,96.39,-6.11,1.07
366,Bobrovka,88,RU,2019-03-23,97,52.3,45.54,0.19,3.52
367,Clyde River,75,CA,2019-03-23,75,70.47,-68.59,-27.0,7.2
368,Motril,75,ES,2019-03-23,54,36.75,-3.52,14.44,2.6
369,Semey,0,KZ,2019-03-23,70,50.41,80.25,-7.91,1.22
370,Havoysund,12,NO,2019-03-23,69,71.0,24.66,2.0,4.6
371,La Ronge,90,CA,2019-03-23,67,55.1,-105.3,0.0,4.6
372,Sal,0,SY,2019-03-23,82,36.63,38.46,12.09,3.02
373,Nicoya,0,CR,2019-03-23,38,10.15,-85.45,33.0,9.3
374,Aykhal,64,RU,2019-03-23,59,65.95,111.51,-19.76,3.72
375,Cherskiy,12,RU,2019-03-23,22,68.75,161.3,-25.91,0.97
376,Egvekinot,88,RU,2019-03-23,65,66.32,-179.17,-18.61,2.32
377,La Orilla,0,MX,2019-03-23,62,18.0,-102.23,29.59,1.92
378,Nizhniy Kuranakh,88,RU,2019-03-23,89,58.84,125.49,-7.96,1.22
379,Waipawa,0,NZ,2019-03-23,94,-39.94,176.59,11.11,1.17
380,Kalabo,0,ZM,2019-03-23,28,-15.0,22.67,28.39,4.57
381,Banjar,44,ID,2019-03-23,97,-7.37,108.54,22.19,0.67
382,Tagusao,0,PH,2019-03-23,97,9.19,117.81,24.84,1.52
383,Novikovo,76,UA,2019-03-23,100,45.05,34.56,2.14,4.37
384,Camocim,80,BR,2019-03-23,99,-2.9,-40.84,26.44,2.17
385,Novo Cruzeiro,92,BR,2019-03-23,95,-17.47,-41.88,19.84,3.92
386,Mitsamiouli,40,KM,2019-03-23,94,-11.38,43.28,26.0,3.1
387,Abha,0,SA,2019-03-23,63,18.22,42.5,19.0,2.1
388,Caravelas,92,BR,2019-03-23,100,-17.73,-39.27,26.69,9.62
389,Constitucion,5,MX,2019-03-23,13,23.99,-104.67,20.56,2.6
390,Puerto Princesa,20,PH,2019-03-23,78,9.74,118.73,26.0,2.1
391,Price,75,US,2019-03-23,57,39.6,-110.81,9.0,2.6
392,Lagoa,0,PT,2019-03-23,63,37.14,-8.45,18.0,4.6
393,Saint-Joseph,0,FR,2019-03-23,54,43.56,6.97,17.22,1.0
394,Qiryat Shemona,75,IL,2019-03-23,82,33.21,35.57,17.0,2.1
395,Domna,20,RU,2019-03-23,62,51.9,113.16,-5.0,4.0
396,Huron,1,US,2019-03-23,65,44.36,-98.21,9.0,6.2
397,Verkhnevilyuysk,88,RU,2019-03-23,69,63.45,120.31,-10.56,4.17
398,Kanke,0,IN,2019-03-23,40,23.41,85.32,21.0,1.0
399,Shingu,0,JP,2019-03-23,100,33.72,135.99,8.59,6.57
400,Shiyan,88,CN,2019-03-23,69,32.65,110.78,1.99,0.77
401,Necochea,0,AR,2019-03-23,36,-38.55,-58.74,27.22,4.02
402,Mahibadhoo,0,MV,2019-03-23,99,3.78,72.97,29.79,4.52
403,Fonte Boa,12,BR,2019-03-23,58,-2.51,-66.09,33.74,1.32
404,Saint-Augustin,0,FR,2019-03-23,34,44.83,-0.61,18.0,4.1
405,Lubao,75,PH,2019-03-23,74,14.94,120.6,27.0,1.0
406,Goundam,12,ML,2019-03-23,18,16.42,-3.66,34.04,0.97
407,Cimislia,0,MD,2019-03-23,38,46.52,28.78,6.0,2.1
408,Joliette,1,CA,2019-03-23,71,46.02,-73.44,2.78,9.3
409,Lulea,0,SE,2019-03-23,51,65.58,22.15,4.0,5.7
410,Tucumcari,1,US,2019-03-23,23,35.17,-103.73,17.0,5.1
411,Terrace,75,CA,2019-03-23,87,54.52,-128.61,7.0,2.6
412,Lehi,40,US,2019-03-23,71,40.39,-111.85,12.22,3.1
413,Bucerias,5,MX,2019-03-23,45,20.76,-105.33,28.0,3.6
414,Catalao,44,BR,2019-03-23,75,-18.17,-47.95,26.24,5.42
415,Mastic Beach,1,US,2019-03-23,39,40.77,-72.85,8.89,9.8
416,Sorland,92,NO,2019-03-23,95,67.67,12.69,5.04,17.87
417,Harer,75,US,2019-03-23,93,42.19,-111.17,7.78,2.1
418,Trapani,0,IT,2019-03-23,82,38.02,12.54,16.67,3.6
419,Erzin,0,TR,2019-03-23,62,36.95,36.2,15.0,1.72
420,San Andres,0,PH,2019-03-23,100,13.32,122.68,26.09,6.52
421,Mirabad,92,IR,2019-03-23,97,28.27,61.33,8.39,1.22
422,Marmashen,40,AM,2019-03-23,44,40.84,43.78,4.0,3.6
423,Guarapuava,24,BR,2019-03-23,77,-25.4,-51.46,23.24,1.67
424,Gwadar,80,PK,2019-03-23,80,25.12,62.33,23.89,4.27
425,Luena,64,AO,2019-03-23,42,-11.78,19.91,24.09,2.37
426,Tromso,75,NO,2019-03-23,59,69.65,18.96,3.0,19.5
427,Port Moresby,40,PG,2019-03-23,94,-9.47,147.16,23.0,2.6
428,Victoria Point,0,AU,2019-03-23,88,-27.58,153.3,23.33,2.6
429,Missoula,90,US,2019-03-23,69,46.87,-114.0,8.33,1.12
430,Tuatapere,76,NZ,2019-03-23,90,-46.13,167.69,13.89,3.02
431,Dinghai,90,CN,2019-03-23,71,26.28,119.79,10.0,4.0
432,Kroya,12,ID,2019-03-23,96,-6.5,108.06,21.74,0.97
433,Luanda,40,AO,2019-03-23,78,-8.83,13.24,28.0,3.1
434,Severomuysk,64,RU,2019-03-23,77,56.17,113.57,-11.21,2.32
435,Ancud,75,CL,2019-03-23,67,-41.87,-73.83,15.0,2.6
436,Mount Gambier,90,AU,2019-03-23,100,-37.83,140.78,15.0,2.1
437,Boyolangu,24,ID,2019-03-23,91,-8.09,111.9,20.64,0.32
438,Nigde,44,TR,2019-03-23,74,37.97,34.68,2.19,1.32
439,Mutoko,36,ZW,2019-03-23,72,-17.4,32.23,21.39,3.87
440,Kidal,92,ML,2019-03-23,12,18.44,1.41,28.24,2.32
441,Bilma,8,NE,2019-03-23,12,18.69,12.92,29.84,5.22
442,Tilichiki,0,RU,2019-03-23,41,60.47,166.1,-25.61,1.32
443,Codrington,12,AU,2019-03-23,88,-28.95,153.24,21.67,3.1
444,Anadyr,75,RU,2019-03-23,76,64.73,177.51,-20.56,3.0
445,Valasske Klobouky,0,CZ,2019-03-23,76,49.14,18.01,14.0,2.1
446,Port Macquarie,36,AU,2019-03-23,100,-31.43,152.91,21.11,3.62
447,Haines Junction,24,CA,2019-03-23,76,60.75,-137.51,0.54,1.22
448,Hasaki,20,JP,2019-03-23,86,35.73,140.83,-1.0,5.57
449,Tual,24,ID,2019-03-23,96,-5.67,132.75,29.49,4.97
450,Touros,20,BR,2019-03-23,74,-5.2,-35.46,30.0,3.1
451,Suluq,44,LY,2019-03-23,94,31.67,20.25,12.64,3.87
452,Goiatuba,44,BR,2019-03-23,67,-18.02,-49.36,28.89,2.87
453,Pisco,0,PE,2019-03-23,30,-13.71,-76.2,22.0,4.6
454,Acapulco,5,MX,2019-03-23,52,16.86,-99.88,31.0,3.6
455,Najran,40,SA,2019-03-23,25,17.54,44.22,29.0,4.1
456,At-Bashi,24,KG,2019-03-23,78,41.17,75.81,-8.91,1.27
457,Awbari,8,LY,2019-03-23,31,26.59,12.77,17.84,3.22
458,Raudeberg,88,NO,2019-03-23,80,61.99,5.14,4.0,11.3
459,College,40,US,2019-03-23,55,64.86,-147.8,5.0,2.6
460,Lompoc,90,US,2019-03-23,87,34.64,-120.46,16.11,3.1
461,Marsa Matruh,0,EG,2019-03-23,67,31.35,27.25,17.0,4.1
462,Kudahuvadhoo,8,MV,2019-03-23,99,2.67,72.89,29.59,4.62
463,Rabo de Peixe,40,PT,2019-03-23,82,37.8,-25.58,13.0,15.4
464,Craig,90,US,2019-03-23,69,40.52,-107.55,5.0,4.6
465,Cerrito,75,CO,2019-03-23,83,6.84,-72.7,23.0,2.6
466,Kameoka,75,JP,2019-03-23,70,35.01,135.51,7.0,5.7
467,Medea,20,DZ,2019-03-23,87,36.27,2.77,14.0,2.6
468,Tikapur,0,NP,2019-03-23,69,28.53,81.12,14.79,1.22
469,Pacasmayo,0,PE,2019-03-23,85,-7.4,-79.57,22.09,5.47
470,Thunder Bay,5,CA,2019-03-23,29,48.41,-89.26,9.0,6.2
471,Fez,40,MA,2019-03-23,36,34.03,-5.02,21.0,8.2
472,Matara,75,PE,2019-03-23,76,-13.74,-72.9,12.0,1.12
473,Shache,8,CN,2019-03-23,31,38.42,77.24,11.67,0.89
474,Turukhansk,88,RU,2019-03-23,88,65.8,87.96,-6.91,1.42
475,Abeokuta,20,NG,2019-03-23,74,7.16,3.35,30.0,2.1
476,Ust-Omchug,44,RU,2019-03-23,62,61.13,149.63,-18.81,1.67
477,Nanchong,92,CN,2019-03-23,94,30.8,106.08,8.74,2.22
478,Klyuchi,12,RU,2019-03-23,79,52.25,79.17,-4.91,1.42
479,Senta,0,RS,2019-03-23,53,45.93,20.08,11.0,1.5
480,Atasu,8,KZ,2019-03-23,78,48.68,71.64,-4.61,1.32
481,Paranhos,44,PY,2019-03-23,77,-23.89,-55.43,28.39,1.87
482,Tricase,5,IT,2019-03-23,71,39.93,18.36,14.0,5.7
483,Imeni Poliny Osipenko,0,RU,2019-03-23,36,52.42,136.49,-23.91,1.12
484,Ribas do Rio Pardo,0,BR,2019-03-23,76,-20.45,-53.76,29.29,2.12
485,Sindor,48,RU,2019-03-23,82,62.87,51.9,-2.51,3.87
486,Prince Rupert,90,CA,2019-03-23,66,54.32,-130.32,10.0,3.6
487,Emerald,0,AU,2019-03-23,88,-23.53,148.16,23.0,2.1
488,Luganville,92,VU,2019-03-23,100,-15.51,167.18,24.24,1.32
489,Saint-Georges,88,CA,2019-03-23,77,46.12,-70.67,0.56,4.47
490,Ucluelet,75,CA,2019-03-23,87,48.94,-125.55,11.67,2.1
491,Alizai,0,PK,2019-03-23,68,33.94,71.55,11.49,0.87
492,Anqing,0,CN,2019-03-23,89,30.51,117.04,5.14,2.42
493,Kanniyakumari,0,IN,2019-03-23,98,8.08,77.57,29.44,2.37
494,Mehran,90,IR,2019-03-23,87,33.12,46.17,7.0,1.0
495,Karasjok,0,NO,2019-03-23,69,69.47,25.52,1.0,4.6
496,Berea,1,US,2019-03-23,38,41.37,-81.85,6.67,2.1
497,Taltal,0,CL,2019-03-23,75,-25.41,-70.49,21.69,1.67
498,Petropavlovskoye,0,RU,2019-03-23,83,46.79,142.5,-20.0,2.0
499,Guhagar,0,IN,2019-03-23,92,17.48,73.19,24.74,3.42
500,Pacific Grove,75,US,2019-03-23,72,36.62,-121.92,16.11,3.1
501,Hamilton,75,BM,2019-03-23,68,32.3,-64.78,21.67,9.3
502,Port Hueneme,90,US,2019-03-23,59,34.15,-119.2,18.33,3.1
503,Mandok,0,HU,2019-03-23,68,48.32,22.19,7.24,0.87
504,Perivolion,0,GR,2019-03-23,59,39.42,20.01,16.0,2.1
505,Khuzhir,32,RU,2019-03-23,68,53.19,107.35,-3.91,3.22
506,Sola,75,FI,2019-03-23,86,62.78,29.36,3.33,4.1
507,Toyooka,80,JP,2019-03-23,88,35.55,134.82,-3.71,1.42
508,Swellendam,64,ZA,2019-03-23,88,-34.02,20.44,21.0,3.6
509,Beringovskiy,92,RU,2019-03-23,84,63.05,179.32,-13.96,9.27
510,Jaora,0,IN,2019-03-23,28,23.64,75.13,21.49,4.32
511,Pangkalanbuun,36,ID,2019-03-23,89,-2.68,111.62,23.09,1.42
512,Spring Valley,1,US,2019-03-23,33,41.11,-74.04,9.0,4.1
513,Riyadh,0,SA,2019-03-23,36,24.63,46.72,24.0,3.6
514,Tawagan,44,PH,2019-03-23,78,13.38,121.14,26.67,1.34
515,Pascagoula,1,US,2019-03-23,27,30.37,-88.56,25.0,5.1
516,Pochutla,20,MX,2019-03-23,55,15.74,-96.47,31.67,6.2
517,Ende,0,ID,2019-03-23,100,-8.84,121.65,28.39,5.02
518,Rawson,68,AR,2019-03-23,45,-43.3,-65.11,18.94,10.77
519,Havelock,1,US,2019-03-23,26,34.88,-76.9,17.22,5.7
520,Purpe,76,RU,2019-03-23,87,64.48,76.69,-5.0,3.97
521,Esso,88,RU,2019-03-23,84,55.93,158.7,-10.26,2.32
522,Havre-Saint-Pierre,90,CA,2019-03-23,86,50.23,-63.6,-2.0,8.7
523,Charters Towers,92,AU,2019-03-23,87,-20.07,146.27,23.79,3.12
524,Naze,75,NG,2019-03-23,74,5.43,7.07,30.0,2.6
525,Hohoe,80,GH,2019-03-23,95,7.15,0.48,23.39,1.57
526,Buenavista,40,CO,2019-03-23,83,4.36,-75.74,27.0,3.6
527,La Asuncion,80,EC,2019-03-23,93,-1.64,-78.74,12.34,1.42
528,Nisia Floresta,40,BR,2019-03-23,62,-6.09,-35.21,31.0,3.1
529,Balaipungut,36,ID,2019-03-23,85,1.11,101.31,24.74,1.22
530,Luchenza,92,MW,2019-03-23,98,-16.01,35.31,21.14,1.52
531,Luklukan,0,PH,2019-03-23,100,14.33,122.71,26.34,7.02
532,Northam,75,GB,2019-03-23,87,51.04,-4.21,10.56,0.5
533,Vanderhoof,80,CA,2019-03-23,80,54.02,-124.02,3.44,1.27
534,Vila,0,IT,2019-03-23,27,45.18,8.4,18.0,1.0
535,Mandera,0,ET,2019-03-23,18,3.94,41.86,32.22,4.42
536,Kattivakkam,20,IN,2019-03-23,83,13.22,80.32,29.0,2.1
537,Caala,80,AO,2019-03-23,79,-12.85,15.56,18.44,1.07
538,Cristalina,92,BR,2019-03-23,94,-16.77,-47.61,21.74,4.12
539,Torres,44,BR,2019-03-23,100,-29.34,-49.73,21.09,2.67
540,Tatarsk,80,RU,2019-03-23,95,55.22,75.96,-0.51,3.17
541,Teacapan,0,MX,2019-03-23,33,22.54,-105.74,28.29,1.22
542,Palmer,75,AU,2019-03-23,82,-34.85,139.16,21.67,1.5
543,Honiara,88,SB,2019-03-23,100,-9.43,159.96,23.44,0.72
544,Isangel,92,VU,2019-03-23,94,-19.55,169.27,24.0,1.5
545,Ketchikan,90,US,2019-03-23,81,55.34,-131.65,9.0,9.3
546,Kemin,92,KG,2019-03-23,95,42.79,75.7,-0.01,0.87
547,Zigong,92,CN,2019-03-23,93,29.34,104.78,9.84,1.32
548,Sidi Ali,0,DZ,2019-03-23,70,36.1,0.42,15.19,2.52
549,Felanitx,0,ES,2019-03-23,63,39.47,3.15,16.0,1.27
550,Puerto Madero,0,AR,2019-03-23,57,-34.61,-58.36,27.78,4.1
551,Jumla,0,NP,2019-03-23,89,29.28,82.18,-5.01,1.02
552,Pleasanton,40,US,2019-03-23,58,37.66,-121.87,16.67,4.1
553,Chaplynka,48,UA,2019-03-23,71,46.36,33.54,5.09,5.72
554,Slave Lake,1,CA,2019-03-23,45,55.28,-114.77,9.0,4.1
555,Illapel,0,CL,2019-03-23,85,-31.63,-71.17,19.54,1.52
556,Pedernales,80,EC,2019-03-23,70,0.07,-80.05,30.09,1.97
557,Huarmey,20,PE,2019-03-23,55,-10.07,-78.15,26.09,1.77
558,Kipini,0,KE,2019-03-23,90,-2.53,40.53,26.69,4.12
559,Eyrarbakki,90,IS,2019-03-23,86,63.86,-21.15,2.78,5.7
560,Watertown,1,US,2019-03-23,53,44.9,-97.12,11.0,3.1
561,Atambua,88,ID,2019-03-23,100,-9.11,124.89,23.64,0.62
562,Porbandar,0,IN,2019-03-23,59,21.64,69.61,24.44,3.97
563,Baie-Comeau,90,CA,2019-03-23,64,49.22,-68.15,1.11,6.7
564,Komsomolskiy,80,RU,2019-03-23,88,67.55,63.78,-5.21,5.22
565,Maragogi,0,BR,2019-03-23,100,-9.01,-35.22,29.04,4.32
566,Tingo Maria,75,PE,2019-03-23,83,-9.29,-76.01,25.0,0.32
567,Banda Aceh,8,ID,2019-03-23,93,5.56,95.32,24.59,0.82
568,Banff,32,CA,2019-03-23,57,51.18,-115.57,8.33,4.47
569,Pokhara,0,NP,2019-03-23,46,28.21,83.99,11.84,2.17
570,Aklavik,75,CA,2019-03-23,67,68.22,-135.01,-8.0,9.3
571,Bagotville,0,AU,2019-03-23,94,-28.98,153.42,21.67,4.97
572,Hualmay,20,PE,2019-03-23,72,-11.1,-77.61,24.84,1.87
573,Kupang,32,ID,2019-03-23,93,-10.16,123.6,27.84,4.82
574,Port Hardy,75,CA,2019-03-23,71,50.7,-127.42,10.0,4.6
575,Baoqing,0,CN,2019-03-23,61,46.32,132.2,-17.51,1.42
576,Elko,90,US,2019-03-23,60,40.83,-115.76,7.22,1.5
577,Salina,75,US,2019-03-23,76,36.29,-95.15,13.89,5.7
578,Beaverlodge,75,CA,2019-03-23,69,55.21,-119.43,3.0,2.6
579,Tautira,40,PF,2019-03-23,70,-17.73,-149.15,30.0,2.1
580,Half Moon Bay,40,US,2019-03-23,58,37.46,-122.43,16.11,4.1
581,Rome,0,IT,2019-03-23,67,41.89,12.48,15.56,1.5
582,Great Yarmouth,0,GB,2019-03-23,70,52.61,1.73,7.22,1.5
583,Luzzi,0,IT,2019-03-23,82,39.45,16.29,13.89,1.0
584,Pozhva,0,RU,2019-03-23,69,59.09,56.08,-9.26,1.17
585,Miri,12,NG,2019-03-23,21,10.31,9.75,31.69,3.77
586,Nancha,36,CN,2019-03-23,60,47.14,129.26,-12.71,1.67
587,Coron,0,FR,2019-03-23,62,47.13,-0.65,15.0,2.6
588,Umm Lajj,0,SA,2019-03-23,75,25.02,37.27,20.74,1.42
589,Zeya,76,RU,2019-03-23,68,53.74,127.27,-13.16,0.92
590,Ramhormoz,12,IR,2019-03-23,53,31.28,49.6,12.09,1.17
591,Panzhihua,12,CN,2019-03-23,46,26.59,101.72,15.44,2.92
592,Shelburne,20,CA,2019-03-23,37,44.08,-80.2,5.0,3.6
593,Les Cayes,0,HT,2019-03-23,95,18.19,-73.75,27.24,4.67
594,Totma,8,RU,2019-03-23,81,59.98,42.76,-3.46,4.22
595,Kampene,76,CD,2019-03-23,96,-3.59,26.67,21.09,0.32
596,Palauig,0,PH,2019-03-23,95,15.44,119.9,22.64,2.32
597,Cseteny,0,HU,2019-03-23,58,47.32,17.99,13.0,0.5
598,Castrillon,0,ES,2019-03-23,76,43.4,-6.79,12.78,2.6
599,Nome,1,US,2019-03-23,41,30.04,-94.42,24.44,5.7
600,Flinders,32,AU,2019-03-23,78,-34.58,150.85,22.22,3.6
601,Provost,0,CA,2019-03-23,69,52.35,-110.26,10.79,3.82
602,Killybegs,92,IE,2019-03-23,70,54.63,-8.45,8.0,4.1
603,Victoria,75,BN,2019-03-23,88,5.28,115.24,27.0,2.1
604,Ibipeba,92,BR,2019-03-23,94,-11.64,-42.01,23.14,0.72
605,Wabash,1,US,2019-03-23,39,40.8,-85.82,9.44,2.07
606,Cairns,40,AU,2019-03-23,83,-16.92,145.77,26.0,3.1
607,Buraydah,0,SA,2019-03-23,40,26.33,43.97,22.0,4.42
608,Qaqortoq,75,GL,2019-03-23,44,60.72,-46.03,-7.0,1.5
609,Itoman,75,JP,2019-03-23,51,26.12,127.67,17.0,3.1
610,Samarai,92,PG,2019-03-23,100,-10.62,150.67,24.34,4.37
611,Usinsk,36,RU,2019-03-23,86,66.0,57.56,-4.11,5.87
612,Christchurch,0,NZ,2019-03-23,93,-43.53,172.64,16.67,3.1
613,Abu Samrah,0,SY,2019-03-23,70,35.3,37.18,14.14,2.77
614,Nanyang,48,CN,2019-03-23,67,33.0,112.53,2.69,2.22
615,Kavaratti,0,IN,2019-03-23,100,10.57,72.64,28.69,3.47
616,Pierre,75,US,2019-03-23,70,44.37,-100.35,8.89,4.6
617,Macau,92,BR,2019-03-23,95,-5.11,-36.64,26.54,3.02
618,Nenjiang,76,CN,2019-03-23,37,49.17,125.23,-2.81,4.32
619,Sompeta,0,IN,2019-03-23,87,18.93,84.6,22.34,1.72
620,Palaikastron,0,GR,2019-03-23,64,35.2,26.25,15.56,8.49
621,Camopi,88,GF,2019-03-23,59,3.17,-52.33,29.64,2.12
622,Champerico,5,MX,2019-03-23,40,16.38,-93.6,30.0,3.1
623,Igarka,88,RU,2019-03-23,84,67.47,86.57,-9.96,2.72
624,Marienburg,75,DE,2019-03-23,87,52.12,9.98,10.0,3.6
625,Minsk,0,BY,2019-03-23,59,53.9,27.56,3.0,2.0
626,Dongning,0,CN,2019-03-23,59,44.06,131.12,-8.66,2.42
627,Novobataysk,40,RU,2019-03-23,72,46.9,39.78,2.0,5.0
628,Bozhou,0,CN,2019-03-23,84,33.86,115.78,5.34,1.32
629,Coquimbo,75,CL,2019-03-23,77,-29.95,-71.34,16.0,4.6
630,Swan Hill,92,AU,2019-03-23,74,-35.34,143.56,18.19,1.32
631,Minsk Mazowiecki,0,PL,2019-03-23,50,52.18,21.57,13.33,2.1
632,Partenit,12,UA,2019-03-23,100,44.58,34.34,4.64,4.97
633,Jega,24,NG,2019-03-23,37,12.22,4.38,34.29,1.32
634,Bowen,75,AU,2019-03-23,94,-20.01,148.25,24.0,5.62
635,Broken Hill,40,AU,2019-03-23,53,-31.97,141.45,23.0,3.1
636,Nalut,80,LY,2019-03-23,56,31.86,10.98,14.09,3.92
637,Barsovo,90,RU,2019-03-23,100,61.17,73.17,-1.0,2.0
638,Trairi,88,BR,2019-03-23,100,-3.28,-39.27,26.19,2.92
639,Arroyo,1,US,2019-03-23,29,41.39,-78.88,6.11,5.7
640,Zavodouspenskoye,0,RU,2019-03-23,92,56.86,65.02,-1.0,4.0
641,Bereznik,76,RU,2019-03-23,84,62.86,42.71,0.34,5.87
642,Byron Bay,0,AU,2019-03-23,88,-28.65,153.62,24.0,3.6
643,Bredy,92,RU,2019-03-23,92,52.43,60.33,-0.66,1.32
644,Hukuntsi,56,BW,2019-03-23,24,-23.98,21.76,29.74,3.67
645,Colomi,20,BO,2019-03-23,26,-17.34,-65.87,28.0,1.5
646,Aboso,64,GH,2019-03-23,92,5.36,-1.95,24.44,2.67
647,Colares,20,PT,2019-03-23,28,38.8,-9.45,23.0,4.6
648,Lazaro Cardenas,5,MX,2019-03-23,14,28.39,-105.62,21.11,1.92
649,Katherine,90,AU,2019-03-23,88,-14.47,132.26,26.0,2.1
650,Padang,24,ID,2019-03-23,100,-0.92,100.36,25.84,1.77
651,Williamsport,1,US,2019-03-23,20,41.25,-77.0,10.56,9.8
652,Kahului,40,US,2019-03-23,57,20.89,-156.47,24.44,5.1
653,Marmato,88,CO,2019-03-23,82,5.47,-75.6,19.74,0.97
654,Mwinilunga,44,ZM,2019-03-23,61,-11.73,24.43,22.64,2.02
655,Kingston,20,CA,2019-03-23,31,44.23,-76.48,3.33,4.6
656,Warrington,0,GB,2019-03-23,70,53.39,-2.59,8.0,2.6
657,Say,12,NE,2019-03-23,3,13.1,2.36,37.0,3.1
658,Torbat-e Jam,0,IR,2019-03-23,86,35.24,60.63,2.19,0.97
659,Gondanglegi,24,ID,2019-03-23,91,-7.75,112.01,20.64,0.32
660,Svay Rieng,20,KH,2019-03-23,96,11.08,105.8,23.89,1.52
661,Debre Tabor,64,ET,2019-03-23,75,11.86,38.01,17.19,2.22
662,Kabare,8,RW,2019-03-23,87,-1.65,29.38,17.89,0.87
663,Gabu,68,CN,2019-03-23,80,34.78,103.0,-9.26,1.17
664,Aizawl,0,IN,2019-03-23,88,23.74,92.72,16.99,0.72
665,Male,56,UA,2019-03-23,73,50.74,33.7,3.09,4.97
666,Piacabucu,20,BR,2019-03-23,100,-10.41,-36.43,28.49,1.97
667,Pittsfield,1,US,2019-03-23,62,39.61,-90.81,13.89,6.2
668,Tangshan,0,CN,2019-03-23,34,39.63,118.17,3.19,5.77
669,Ostrovnoy,8,RU,2019-03-23,87,68.05,39.51,-1.51,11.77
670,Dyurtyuli,56,RU,2019-03-23,94,55.49,54.86,0.44,3.12
671,Zabaykalsk,0,CN,2019-03-23,45,49.64,117.33,-2.91,7.02
672,Whitehorse,75,CA,2019-03-23,60,60.72,-135.06,8.89,4.1
673,Sioux Lookout,20,CA,2019-03-23,28,50.1,-91.92,8.0,3.6
674,Melendugno,0,IT,2019-03-23,82,40.27,18.34,14.0,5.7
675,Miramar,0,CR,2019-03-23,39,10.09,-84.73,28.0,7.2
676,Ahuimanu,75,US,2019-03-23,73,21.44,-157.84,25.0,2.1
677,Sol-Iletsk,20,RU,2019-03-23,81,51.16,55.0,-5.86,2.92
678,Elizabeth City,1,US,2019-03-23,30,36.3,-76.22,16.0,6.37
679,Kosikha,0,RU,2019-03-23,58,53.36,84.58,0.0,3.0
680,Rio Branco,75,BR,2019-03-23,70,-9.98,-67.82,31.0,3.1
681,Noumea,44,NC,2019-03-23,88,-22.28,166.46,22.0,2.72
682,Temryuk,12,RU,2019-03-23,88,45.28,37.39,2.0,2.0
683,Sadiqabad,0,PK,2019-03-23,50,28.31,70.13,23.74,5.27
684,Boddam,0,GB,2019-03-23,49,57.47,-1.78,8.0,3.6
685,Belaya Gora,48,RU,2019-03-23,23,68.54,146.19,-26.76,1.32
686,Altar,0,MX,2019-03-23,22,30.72,-111.84,23.33,1.34
687,Lastoursville,88,GA,2019-03-23,82,-0.81,12.73,26.94,1.52
688,Koutiala,56,ML,2019-03-23,21,12.39,-5.46,35.49,0.77
689,Dalbandin,100,PK,2019-03-23,57,28.9,64.41,16.04,4.22
690,Tessalit,80,ML,2019-03-23,11,20.2,1.01,26.49,3.62
691,Shimoda,0,JP,2019-03-23,100,34.7,138.93,8.44,2.32
692,Jacobabad,24,PK,2019-03-23,54,28.29,68.44,23.74,1.87
693,Portland,90,US,2019-03-23,81,45.52,-122.67,12.78,2.6
694,Constantine,20,DZ,2019-03-23,87,36.36,6.61,10.0,1.5
695,Chizhou,0,CN,2019-03-23,79,30.67,117.49,3.74,1.67
696,Pemba,32,MZ,2019-03-23,97,-12.97,40.52,29.74,4.67
697,Magaria,0,NE,2019-03-23,32,13.0,8.91,33.64,1.77
698,Mecca,0,SA,2019-03-23,49,21.43,39.83,20.84,1.22
699,Poum,12,MK,2019-03-23,65,41.28,20.71,6.14,0.82
700,Santa Maria,20,BR,2019-03-23,54,-29.69,-53.81,26.0,2.6
701,Monrovia,40,LR,2019-03-23,74,6.33,-10.8,30.0,3.6
702,Tommot,80,RU,2019-03-23,82,58.97,126.27,-8.31,1.27
703,Alyangula,90,AU,2019-03-23,83,-13.85,136.42,29.0,4.6
704,Margate,75,AU,2019-03-23,63,-43.03,147.26,18.0,0.5
705,Ormara,92,PK,2019-03-23,82,25.21,64.64,24.04,6.62
706,Ciudad Bolivar,0,VE,2019-03-23,26,8.12,-63.55,36.79,5.57
707,Wajima,88,JP,2019-03-23,100,37.4,136.9,4.59,7.62
708,Kargil,8,PK,2019-03-23,84,34.56,76.13,-15.26,0.52
709,Menongue,68,AO,2019-03-23,45,-14.66,17.68,24.59,1.17
710,Altay,0,CN,2019-03-23,47,47.83,88.13,-14.91,2.62
711,Maniitsoq,56,GL,2019-03-23,99,65.42,-52.9,-14.86,6.57
712,Siuna,0,NI,2019-03-23,54,13.73,-84.78,27.54,1.77
713,Tari,0,NG,2019-03-23,24,12.41,4.49,34.19,2.02
714,Zasheyek,48,RU,2019-03-23,82,67.41,32.55,0.74,3.97
715,Petropavlovsk-Kamchatskiy,40,RU,2019-03-23,81,53.05,158.65,0.0,1.0
716,Lashio,0,MM,2019-03-23,86,22.93,97.75,16.34,0.77
717,Merthyr Tydfil,90,GB,2019-03-23,66,51.75,-3.38,10.0,4.1
718,Progreso,75,UY,2019-03-23,44,-34.68,-56.22,25.0,2.1
719,Lardos,0,GR,2019-03-23,77,36.09,28.02,18.33,2.1
720,Nepomuk,0,CZ,2019-03-23,48,49.49,13.58,16.0,1.0
721,Severnyy-Kospashskiy,0,RU,2019-03-23,70,59.09,57.8,-7.22,1.27
722,Krabi,20,TH,2019-03-23,88,8.06,98.92,28.0,3.22
723,Kasongo-Lunda,56,CD,2019-03-23,93,-6.48,16.82,21.69,0.92
724,Safford,1,US,2019-03-23,27,32.83,-109.71,18.0,2.6
725,Portales,1,US,2019-03-23,28,34.19,-103.33,16.67,6.2
726,Merauke,56,ID,2019-03-23,100,-8.49,140.4,24.34,2.02
727,Amga,76,RU,2019-03-23,64,60.89,131.98,-16.51,1.67
728,Lakatoro,92,VU,2019-03-23,100,-16.11,167.42,23.24,1.52
729,Xai-Xai,20,MZ,2019-03-23,93,-25.04,33.64,26.09,5.17
730,Lyuban,0,BY,2019-03-23,68,52.8,28.0,1.69,1.27
731,Diapaga,0,BF,2019-03-23,22,12.07,1.79,33.74,1.62
732,Khvoynaya,76,RU,2019-03-23,87,58.9,34.53,1.74,4.47
733,Praya,75,ID,2019-03-23,100,-8.71,116.27,24.0,4.1
734,Manching,0,DE,2019-03-23,62,48.72,11.49,13.33,1.32
735,Khor,0,RU,2019-03-23,60,47.88,134.96,-15.31,2.12
736,Otane,0,NZ,2019-03-23,94,-39.89,176.62,11.11,1.67
737,San Jose,24,PH,2019-03-23,89,15.79,120.99,19.89,1.47
738,Sulphur Springs,90,US,2019-03-23,60,33.14,-95.6,22.22,5.7
739,Channel-Port aux Basques,0,CA,2019-03-23,90,47.57,-59.14,1.24,12.77
740,Nipawin,1,CA,2019-03-23,89,53.36,-104.02,5.0,4.6
741,Sao Jose da Coroa Grande,0,BR,2019-03-23,100,-8.9,-35.15,29.04,4.32
742,Izhmorskiy,80,RU,2019-03-23,90,56.19,86.64,-5.51,1.32
743,Kirovskiy,0,RU,2019-03-23,72,45.09,133.51,-14.66,1.07
744,Bonoua,0,CI,2019-03-23,74,5.27,-3.6,29.0,4.6
745,Kargasok,64,RU,2019-03-23,86,59.06,80.87,-5.26,1.07
746,Muzhi,0,RU,2019-03-23,63,65.4,64.7,-12.56,1.37
747,Medicine Hat,75,CA,2019-03-23,66,50.04,-110.68,13.33,1.5
748,Vilhena,75,BR,2019-03-23,79,-12.74,-60.15,29.0,5.1
749,Zhigansk,68,RU,2019-03-23,78,66.77,123.37,-12.91,2.87
750,Kabalo,12,CD,2019-03-23,85,-6.05,26.92,24.84,4.02
751,Turtas,76,RU,2019-03-23,94,58.94,69.13,-0.21,2.67
752,Ambilobe,80,MG,2019-03-23,97,-13.19,49.05,23.84,1.07
753,Paamiut,0,GL,2019-03-23,100,61.99,-49.67,-6.86,5.42
754,Boguchany,36,RU,2019-03-23,73,58.38,97.46,-4.81,1.47
755,Sisimiut,68,GL,2019-03-23,71,66.94,-53.67,-21.56,1.02
756,Mayahi,0,NE,2019-03-23,43,13.95,7.67,33.94,1.37
757,Birjand,75,IR,2019-03-23,66,32.86,59.22,10.0,7.2
758,Ingham,92,AU,2019-03-23,100,-18.65,146.16,25.64,3.52
759,Danilov,0,RU,2019-03-23,86,58.19,40.17,-2.0,1.0
760,Marquette,5,US,2019-03-23,36,46.54,-87.4,10.0,4.1
761,Almaznyy,40,RU,2019-03-23,87,48.03,40.04,2.0,5.0
762,Andra,64,RU,2019-03-23,82,62.52,65.89,-3.46,2.87
763,Juneau,90,US,2019-03-23,87,58.3,-134.42,8.0,9.3
764,Pacifica,1,US,2019-03-23,76,37.61,-122.49,16.11,4.1
765,Melfi,5,IT,2019-03-23,31,41.0,15.66,9.0,4.6
766,Moree,75,AU,2019-03-23,50,-29.46,149.84,26.0,3.6
767,Srednekolymsk,0,RU,2019-03-23,53,67.46,153.71,-20.46,1.07
768,Lazarev,8,RU,2019-03-23,62,52.23,141.51,-19.66,2.77
769,Calawag,68,PH,2019-03-23,92,10.67,119.57,26.69,6.47
770,Taperoa,48,BR,2019-03-23,95,-7.21,-36.83,24.59,3.17
771,Jizan,0,SA,2019-03-23,74,16.89,42.56,29.0,1.5
772,Gobabis,76,NA,2019-03-23,29,-22.45,18.97,27.79,2.47
773,Pervomayskoye,68,RU,2019-03-23,81,57.07,86.23,-7.91,1.22
774,Ladario,20,PT,2019-03-23,58,40.7,-7.74,18.89,1.22
775,Barra do Corda,80,BR,2019-03-23,82,-5.5,-45.25,29.24,2.57
776,Tikhvin,92,RU,2019-03-23,84,59.64,33.53,1.67,4.32
777,Karratha,92,AU,2019-03-23,58,-20.74,116.85,28.09,17.17
778,Sigli,0,ID,2019-03-23,95,5.38,95.96,25.59,1.57
779,Angoram,68,PG,2019-03-23,94,-4.06,144.07,25.49,1.07
780,Hay River,75,CA,2019-03-23,72,60.82,-115.79,-9.0,6.7
781,San Miguel,0,AR,2019-03-23,53,-34.54,-58.72,27.78,3.6
782,Bogorodskoye,0,RU,2019-03-23,61,52.37,140.44,-19.71,1.87
783,Jinchang,8,CN,2019-03-23,51,38.52,102.19,-8.21,1.42
784,Janauba,68,BR,2019-03-23,81,-1.63,-45.47,29.04,3.67
785,Cururupu,100,BR,2019-03-23,82,-1.82,-44.87,28.24,3.87
786,Xinqing,56,CN,2019-03-23,53,48.28,129.53,-16.26,1.52
787,Richards Bay,48,ZA,2019-03-23,93,-28.77,32.06,22.24,3.42
788,Aras,8,YE,2019-03-23,62,14.28,44.38,13.24,1.42
789,Krasnyy Kut,24,RU,2019-03-23,70,47.1,40.67,2.24,5.27
790,Buriti Bravo,76,BR,2019-03-23,77,-5.84,-43.84,28.44,1.32
791,Tyukhtet,92,RU,2019-03-23,73,56.54,89.31,-4.66,1.27
792,Vargem Alta,64,BR,2019-03-23,76,-20.67,-41.01,22.99,3.47
793,Sri Aman,8,MY,2019-03-23,100,1.24,111.46,24.0,1.02
794,Camalu,0,MX,2019-03-23,42,30.85,-116.07,19.54,2.52
795,San Carlos,0,VE,2019-03-23,36,9.66,-68.59,36.14,2.57
796,Catuday,12,PH,2019-03-23,90,16.29,119.81,25.69,5.22
797,Leh,76,IN,2019-03-23,83,34.16,77.58,-16.21,0.37
798,Baley,8,RU,2019-03-23,49,51.58,116.65,-6.01,3.07
799,Vostok,0,RU,2019-03-23,67,46.45,135.83,-14.26,1.12
800,Chumikan,0,RU,2019-03-23,53,54.72,135.31,-13.91,3.47
801,Bonham,90,US,2019-03-23,68,33.58,-96.18,22.78,7.2
802,Araouane,92,ML,2019-03-23,11,18.9,-3.53,30.99,2.27
803,Bubaque,8,GW,2019-03-23,80,11.28,-15.83,28.99,2.62
804,Mishan,0,CN,2019-03-23,57,45.55,131.88,-16.56,1.52
805,Dandong,0,CN,2019-03-23,61,40.12,124.37,-5.86,2.37
806,Biscarrosse,0,FR,2019-03-23,47,44.41,-1.18,18.0,3.1
807,Abu Dhabi,88,AE,2019-03-23,42,24.47,54.37,29.0,2.1
808,Duki,48,PK,2019-03-23,84,30.15,68.58,10.94,1.42
809,Myitkyina,12,MM,2019-03-23,96,25.38,97.4,15.59,1.27
810,Saraikela,0,IN,2019-03-23,56,22.7,85.93,17.84,1.47
811,Sarankhola,0,BD,2019-03-23,92,22.31,89.79,22.39,1.32
812,Gravdal,40,NO,2019-03-23,70,59.79,5.78,6.0,9.3
813,Severo-Yeniseyskiy,76,RU,2019-03-23,81,60.37,93.04,-4.41,1.17
814,Morondava,20,MG,2019-03-23,77,-20.3,44.28,29.59,2.57
815,Opuwo,88,NA,2019-03-23,38,-18.06,13.84,27.29,1.72
816,Bongandanga,64,CD,2019-03-23,94,1.51,21.07,24.14,1.92
817,Port-Cartier,75,CA,2019-03-23,68,50.03,-66.88,0.0,4.6
818,Amalapuram,12,IN,2019-03-23,80,16.58,82.0,26.39,2.77
819,Dawei,0,MM,2019-03-23,93,14.07,98.19,23.09,0.82
820,Mingoyo,20,TZ,2019-03-23,94,-10.1,39.64,26.0,1.87
821,Hokitika,0,NZ,2019-03-23,100,-42.72,170.96,14.49,2.77
822,Waddan,56,LY,2019-03-23,41,29.16,16.14,17.74,4.37
823,Seoul,1,KR,2019-03-23,74,37.57,126.98,-1.0,0.5
824,Mora,0,SE,2019-03-23,44,61.01,14.54,5.0,7.2
825,Mehamn,0,NO,2019-03-23,73,71.03,27.85,-2.56,2.52
826,Abonnema,75,NG,2019-03-23,74,4.71,6.79,30.0,2.6
827,Hobyo,12,SO,2019-03-23,86,5.35,48.53,26.74,5.72
828,Varenikovskaya,0,RU,2019-03-23,66,45.12,37.64,2.0,2.0
829,Diffa,24,NE,2019-03-23,18,13.32,12.61,33.59,3.07
830,Chodavaram,8,IN,2019-03-23,94,17.44,81.78,21.34,1.82
831,Ariquemes,92,BR,2019-03-23,97,-9.91,-63.03,22.84,1.32
832,San Jose de Guanipa,0,VE,2019-03-23,23,8.89,-64.17,35.89,6.57
833,Holland,1,US,2019-03-23,52,42.79,-86.11,7.78,2.1
834,Benito Juarez,0,MX,2019-03-23,30,28.64,-111.57,26.11,2.68
835,Ambanja,44,MG,2019-03-23,97,-13.68,48.45,22.59,0.87
836,Pauini,88,BR,2019-03-23,93,-7.71,-67.0,24.89,2.12
837,Machico,40,PT,2019-03-23,63,32.7,-16.77,17.0,5.1
838,Jiaocheng,92,CN,2019-03-23,98,24.68,116.14,12.19,0.87
839,Luoyang,24,CN,2019-03-23,53,34.66,112.42,0.94,1.62
840,Marsabit,0,KE,2019-03-23,60,2.34,37.99,25.39,2.72
841,Pucallpa,75,PE,2019-03-23,331,-8.38,-74.54,2.0,1.0
842,Vagay,64,RU,2019-03-23,88,57.94,69.02,-0.96,2.87
843,Teahupoo,40,PF,2019-03-23,70,-17.83,-149.27,30.0,2.1
844,Cordoba,44,CO,2019-03-23,83,5.59,-73.79,16.49,1.22
845,Lufilufi,75,WS,2019-03-23,94,-13.87,-171.6,27.78,2.1
846,Yeniseysk,44,RU,2019-03-23,70,58.45,92.17,-7.76,1.07
847,Ust-Nera,56,RU,2019-03-23,68,64.57,143.24,-24.66,0.97
848,Tingi,48,TZ,2019-03-23,100,-11.3,35.03,25.84,1.67
849,Bourail,76,NC,2019-03-23,98,-21.57,165.5,22.64,1.32
850,Batsfjord,36,NO,2019-03-23,96,70.63,29.72,3.34,5.52
851,Carmen,36,PH,2019-03-23,58,7.2,124.8,27.44,1.52
852,Chongwe,0,ZM,2019-03-23,77,-15.33,28.68,20.0,1.5
853,Eirunepe,88,BR,2019-03-23,97,-6.66,-69.87,25.89,1.42
854,Mahajanga,20,MG,2019-03-23,94,-15.72,46.32,27.0,2.1
855,Amazar,36,RU,2019-03-23,50,53.86,120.88,-7.56,2.52
856,Belyy Yar,0,RU,2019-03-23,53,53.6,91.39,-5.0,1.0
857,Ampanihy,12,MG,2019-03-23,71,-24.69,44.75,24.69,5.42
858,Zharkent,0,KZ,2019-03-23,65,44.17,80.0,-5.51,1.02
859,Chipinge,68,ZW,2019-03-23,98,-20.19,32.62,20.19,1.52
860,Maceio,20,BR,2019-03-23,62,-9.67,-35.74,31.0,7.7
861,Kununurra,44,AU,2019-03-23,88,-15.77,128.74,26.0,3.6
862,Russkiy Kameshkir,92,RU,2019-03-23,96,52.86,46.09,0.24,5.17
863,Coahuayana,0,MX,2019-03-23,24,18.62,-100.35,29.49,1.37
864,Zhangjiakou,0,CN,2019-03-23,51,40.77,114.88,-6.96,2.67
865,Gat,20,SN,2019-03-23,64,14.69,-16.54,22.0,8.2
866,Sabang,0,PH,2019-03-23,95,13.72,123.58,23.29,4.02
867,Hirara,68,JP,2019-03-23,100,24.8,125.28,20.29,10.62
868,Bayonne,20,US,2019-03-23,31,40.67,-74.11,10.0,9.3
869,West Wendover,1,US,2019-03-23,81,40.74,-114.07,8.0,4.6
870,Baherden,44,TM,2019-03-23,90,38.44,57.43,9.24,2.52
871,Trosna,0,RU,2019-03-23,86,52.45,35.78,-2.31,4.27
872,Mackay,75,CA,2019-03-23,60,53.65,-115.58,6.0,3.1
873,Lisakovsk,76,KZ,2019-03-23,71,52.55,62.49,-4.26,1.32
874,Barabai,68,ID,2019-03-23,96,-2.59,115.38,22.94,0.62
875,Buchanan,40,LR,2019-03-23,74,5.88,-10.05,30.0,3.6
876,Komatipoort,80,MZ,2019-03-23,94,-25.43,31.96,21.67,0.5
877,Gonzalez,80,CO,2019-03-23,92,8.39,-73.38,20.99,0.97
878,Lengshuijiang,48,CN,2019-03-23,87,27.66,111.45,5.69,1.02
879,Chifeng,0,CN,2019-03-23,63,42.27,118.96,-3.61,3.77
880,Zalantun,24,CN,2019-03-23,62,48.0,122.72,-6.56,1.77
881,San Ignacio,0,CL,2019-03-23,39,-36.8,-72.03,26.0,9.8
882,Shenjiamen,0,CN,2019-03-23,95,29.96,122.3,9.69,5.32
883,Cap Malheureux,75,MU,2019-03-23,83,-19.98,57.61,27.0,5.1
884,Salinopolis,88,BR,2019-03-23,100,-0.61,-47.36,26.94,4.47
885,Petropavlovka,0,RU,2019-03-23,67,50.61,105.32,-5.96,0.97
886,Stokmarknes,92,NO,2019-03-23,91,68.56,14.91,1.67,6.71
887,Burton,1,US,2019-03-23,41,43.0,-83.62,8.33,4.1
888,Kisangani,64,CD,2019-03-23,96,0.52,25.21,23.79,2.12
889,Yining,36,CN,2019-03-23,86,29.04,114.56,1.94,1.02
890,Genhe,0,CN,2019-03-23,82,50.78,121.52,-9.66,3.37
891,Yangjiang,88,CN,2019-03-23,100,21.85,111.96,17.49,9.72
892,Nuuk,75,GL,2019-03-23,43,64.17,-51.74,-9.0,7.2
893,Nadym,92,RU,2019-03-23,93,65.53,72.51,-1.81,3.12
894,Haileybury,1,CA,2019-03-23,63,47.44,-79.64,-3.0,4.6
895,Tsumeb,40,NA,2019-03-23,36,-19.25,17.72,27.0,3.1
896,Manokwari,36,ID,2019-03-23,100,-0.87,134.08,26.49,3.47
897,Zhanaozen,0,KZ,2019-03-23,82,43.35,52.85,5.09,2.32
898,Sosua,20,DO,2019-03-23,58,19.77,-70.52,32.78,8.7
899,Stanghelle,75,NO,2019-03-23,85,60.55,5.74,5.0,5.7
900,Aleppo,0,SY,2019-03-23,83,36.2,37.17,11.69,0.92
901,Barma,44,SL,2019-03-23,62,8.35,-11.33,29.29,2.52
902,Morgan City,1,US,2019-03-23,35,29.7,-91.21,25.0,3.6
903,Wattegama,12,LK,2019-03-23,93,7.35,80.68,20.54,1.12
904,Stawell,32,AU,2019-03-23,88,-37.06,142.77,12.78,1.37
905,Taksimo,32,RU,2019-03-23,54,56.36,114.84,-8.91,2.12
906,Suffolk,1,US,2019-03-23,22,36.73,-76.58,16.11,9.3
907,Iquique,0,CL,2019-03-23,60,-20.22,-70.14,23.0,6.7
908,Vikhorevka,64,RU,2019-03-23,78,56.12,101.17,-6.11,2.0
909,Gornopravdinsk,76,RU,2019-03-23,99,60.06,69.92,-0.16,1.97
910,Sirajganj,0,BD,2019-03-23,70,24.46,89.71,18.49,1.27
911,Gordeyevka,0,RU,2019-03-23,84,52.96,31.97,-0.01,1.52
912,Mmabatho,0,ZA,2019-03-23,47,-25.85,25.61,24.0,3.1
913,Nagorsk,24,RU,2019-03-23,86,59.32,50.8,-4.26,2.07
914,Nyurba,76,RU,2019-03-23,75,63.29,118.35,-8.91,3.22
915,Kalmunai,0,LK,2019-03-23,94,7.42,81.82,23.89,1.22
916,Itaqui,0,BR,2019-03-23,48,-29.13,-56.55,28.94,1.87
917,Pirgos,40,GR,2019-03-23,67,35.12,25.72,15.56,6.2
918,Tomaszow Mazowiecki,0,PL,2019-03-23,76,51.53,20.01,12.78,0.5
919,Roswell,1,US,2019-03-23,16,33.39,-104.52,22.22,2.1
920,Kandrian,88,PG,2019-03-23,98,-6.21,149.55,23.99,1.07
921,Umea,0,SE,2019-03-23,44,63.83,20.26,5.0,5.7
922,Nantucket,1,US,2019-03-23,42,41.28,-70.1,9.0,11.8
923,Kolyvan,48,RU,2019-03-23,95,55.31,82.74,0.0,3.0
924,Helena,1,US,2019-03-23,69,46.59,-112.04,5.0,2.42
925,Mugur-Aksy,0,RU,2019-03-23,46,50.38,90.44,-19.36,1.22
926,Antalaha,64,MG,2019-03-23,89,-14.9,50.28,26.44,4.07
927,Matao,32,BR,2019-03-23,77,-21.6,-48.37,28.89,2.07
928,Barlinek,40,PL,2019-03-23,81,53.0,15.22,8.0,2.1
929,Rohri,8,PK,2019-03-23,69,27.68,68.91,24.0,4.1
930,Concepcion del Oro,0,MX,2019-03-23,43,24.63,-101.42,19.09,0.82
931,Mataundh,0,IN,2019-03-23,37,25.44,80.16,18.69,1.42
932,Muriti,20,TZ,2019-03-23,78,-1.99,32.93,25.0,2.97
933,Devils Lake,1,US,2019-03-23,94,48.11,-98.87,5.0,3.6
934,Kribi,88,CM,2019-03-23,88,2.94,9.91,25.89,2.42
935,Monywa,0,MM,2019-03-23,70,22.12,95.13,22.84,4.07
936,Puerto Leguizamo,68,CO,2019-03-23,81,-0.19,-74.78,27.84,1.22
937,Srivardhan,0,IN,2019-03-23,81,18.03,73.02,22.39,1.77
938,Manzhouli,0,CN,2019-03-23,45,49.6,117.43,-2.91,7.02
939,Shirokiy,0,RU,2019-03-23,61,53.87,39.17,1.11,4.32
940,Zhicheng,12,CN,2019-03-23,61,35.04,112.59,-0.16,1.02
941,Yellandu,8,IN,2019-03-23,76,17.59,80.32,24.29,2.37
942,Ibotirama,32,BR,2019-03-23,80,-12.18,-43.22,27.69,1.32
943,Redmond,1,US,2019-03-23,76,47.67,-122.12,13.89,2.6
944,Goma,8,CD,2019-03-23,87,-1.67,29.23,17.89,0.87
945,Ahlat,88,TR,2019-03-23,97,38.75,42.49,-0.31,1.22
946,Tlacotepec,20,MX,2019-03-23,21,18.96,-99.93,21.0,3.1
947,Kostroma,0,RU,2019-03-23,86,57.77,40.93,-2.0,1.0
948,Palana,36,RU,2019-03-23,62,59.08,159.95,-6.56,3.67
949,Manakara,92,MG,2019-03-23,100,-22.14,48.01,22.99,2.82
950,Corn Island,8,NI,2019-03-23,100,12.17,-83.04,26.49,5.97
951,Porto Walter,56,BR,2019-03-23,80,-8.27,-72.74,28.64,1.17
952,Liuzhou,100,CN,2019-03-23,100,24.32,109.41,10.64,1.82
953,Silver City,1,US,2019-03-23,23,32.77,-108.28,16.67,4.1
954,Kutum,36,SD,2019-03-23,41,14.2,24.66,24.99,1.32
955,Jagdalpur,56,IN,2019-03-23,57,19.09,82.02,25.69,1.52
956,Sambava,32,MG,2019-03-23,100,-14.27,50.17,28.34,7.22
957,Mnogovershinnyy,0,RU,2019-03-23,62,53.94,139.92,-22.56,1.27
958,Swift Current,1,CA,2019-03-23,62,50.29,-107.8,12.0,2.6
959,Nova Olimpia,32,BR,2019-03-23,71,-14.8,-57.29,32.49,2.02
960,Sault Sainte Marie,1,CA,2019-03-23,44,46.49,-84.36,4.0,5.1
961,Meadow Lake,5,CA,2019-03-23,77,54.13,-108.44,5.0,1.5
962,Tonekabon,75,IR,2019-03-23,87,36.82,50.88,12.0,0.62
963,Barcelos,0,PT,2019-03-23,42,41.53,-8.62,18.89,3.6
964,Davenda,0,RU,2019-03-23,67,53.56,119.32,-11.01,2.12
965,San Angelo,1,US,2019-03-23,34,31.46,-100.44,26.67,4.1
966,Wonthaggi,56,AU,2019-03-23,87,-38.6,145.59,18.33,1.02
967,Georgiyevskoye,0,RU,2019-03-23,77,44.16,39.25,0.94,1.42
968,Bhatkal,0,IN,2019-03-23,100,13.97,74.57,27.64,3.97
969,Majene,12,ID,2019-03-23,96,-3.54,118.97,28.54,4.32
970,Kenora,1,CA,2019-03-23,60,49.76,-94.48,6.0,3.6
971,Dhidhdhoo,0,MV,2019-03-23,100,6.88,73.1,29.19,2.32
972,Kamaishi,0,JP,2019-03-23,84,39.28,141.86,-5.21,0.77
973,Iba,36,NG,2019-03-23,70,7.97,4.7,27.59,2.62
974,Vallenar,0,CL,2019-03-23,69,-28.58,-70.76,22.84,1.32
975,Teknaf,0,BD,2019-03-23,89,20.86,92.31,22.79,1.52
976,Latung,92,ID,2019-03-23,90,-8.45,120.42,24.49,2.47
977,Matamoros,90,US,2019-03-23,57,25.87,-97.51,26.67,9.8
978,Khorixas,36,NA,2019-03-23,27,-20.37,14.96,28.84,2.07
979,Kajaani,0,FI,2019-03-23,74,64.22,27.73,2.0,5.1
980,Lianzhou,88,CN,2019-03-23,98,24.79,112.38,7.34,1.07
981,Hudson Bay,0,CA,2019-03-23,75,52.86,-102.4,7.24,2.37
982,Lakes Entrance,76,AU,2019-03-23,86,-37.88,147.99,17.22,2.27
983,Bako,0,NG,2019-03-23,50,9.68,6.4,32.44,1.22
984,Diphu,24,IN,2019-03-23,97,25.84,93.44,15.79,1.17
985,Zemio,12,CF,2019-03-23,54,5.02,25.13,28.09,2.72
986,Yar-Sale,76,RU,2019-03-23,91,66.83,70.83,-5.91,3.42
987,San Vicente,20,SV,2019-03-23,38,13.64,-88.78,33.0,4.6
988,Jieshi,92,CN,2019-03-23,11,22.82,115.83,15.0,10.77
989,Udachnyy,56,RU,2019-03-23,58,66.42,112.4,-19.36,2.22
990,Mweka,80,CD,2019-03-23,96,-4.85,21.56,22.34,1.37
991,Kindu,44,CD,2019-03-23,93,-2.95,25.92,23.79,1.47
992,Mumford,80,GH,2019-03-23,77,5.26,-0.76,28.79,3.77
993,Guanica,90,PR,2019-03-23,74,17.97,-66.91,28.33,5.7
994,Den Helder,90,NL,2019-03-23,75,52.96,4.76,7.22,3.6
995,Inhambane,20,MZ,2019-03-23,94,-23.87,35.38,24.0,2.6
996,Ta Khmau,56,KH,2019-03-23,87,11.48,104.95,25.69,2.57
997,Meiganga,68,CM,2019-03-23,42,6.52,14.29,25.89,1.22
998,Koppies,48,ZA,2019-03-23,62,-27.24,27.57,21.14,1.17
999,Machiques,48,VE,2019-03-23,76,10.06,-72.55,25.34,1.52
1000,Lebowakgomo,0,ZA,2019-03-23,59,-24.3,29.54,20.0,4.1
1001,Kampli,68,IN,2019-03-23,32,15.41,76.6,28.74,2.22
1002,Garissa,48,KE,2019-03-23,42,-0.46,39.64,31.59,3.92
1003,Teguise,20,ES,2019-03-23,63,29.06,-13.56,18.0,11.8
1004,Muisne,75,EC,2019-03-23,79,0.61,-80.02,29.0,2.6
1005,Viedma,8,AR,2019-03-23,53,-40.81,-62.99,20.99,7.77
1006,Beboto,0,TD,2019-03-23,17,8.27,16.94,34.24,3.52
1007,Tucuman,0,PE,2019-03-23,52,-17.17,-70.89,21.99,1.92
1008,Iznik,20,TR,2019-03-23,48,40.43,29.72,7.22,4.1
1009,Tirau,92,NZ,2019-03-23,54,-37.98,175.76,17.78,1.32
1010,Bonnyville,40,CA,2019-03-23,52,54.27,-110.74,8.0,4.1
1011,Soe,92,EE,2019-03-23,93,57.91,26.05,6.0,7.2
1012,Okhotsk,88,RU,2019-03-23,86,59.36,143.24,-6.01,3.22
1013,Kiruna,44,SE,2019-03-23,67,67.86,20.23,0.0,11.3
1014,Mbeya,36,TZ,2019-03-23,90,-8.91,33.47,16.69,1.52
1015,Rypin,64,PL,2019-03-23,73,53.07,19.41,12.74,3.77
1016,West Odessa,0,US,2019-03-23,23,31.84,-102.48,24.0,3.1
1017,Sebinkarahisar,92,TR,2019-03-23,97,40.29,38.42,-0.41,1.12
1018,Ha Tinh,92,VN,2019-03-23,100,18.33,105.9,21.44,7.97
1019,Kyaiklat,0,MM,2019-03-23,78,16.44,95.73,26.0,1.5
1020,Bayanday,80,RU,2019-03-23,83,53.07,105.52,-3.36,2.42
1021,Baoma,92,CN,2019-03-23,96,31.49,106.11,8.34,2.22
1022,Martigny,0,CH,2019-03-23,48,46.1,7.07,17.0,1.0
1023,Denpasar,40,ID,2019-03-23,100,-8.65,115.22,25.0,3.1
1024,Mouzouras,40,GR,2019-03-23,82,35.53,24.15,15.56,2.1
1025,Springdale,75,US,2019-03-23,81,36.19,-94.13,16.11,5.7
1026,Iskateley,80,RU,2019-03-23,89,67.68,53.15,-1.26,10.67
1027,Arlit,92,NE,2019-03-23,26,18.74,7.39,28.49,2.37
1028,Huittinen,0,FI,2019-03-23,69,61.18,22.7,5.0,4.1
1029,Luau,76,CD,2019-03-23,69,-10.7,22.23,23.84,1.97
1030,Boueni,0,YT,2019-03-23,94,-12.9,45.08,27.0,2.6
1031,Lake Cowichan,75,CA,2019-03-23,54,48.82,-124.05,13.0,3.1
1032,Herat,76,AF,2019-03-23,65,34.35,62.22,4.59,1.22
1033,Calatrava,20,PH,2019-03-23,74,10.6,123.48,26.0,2.1
1034,Hvide Sande,0,DK,2019-03-23,86,56.01,8.13,6.11,3.1
1035,Moindou,76,NC,2019-03-23,88,-21.69,165.68,22.0,1.32
1036,Banfora,0,BF,2019-03-23,17,10.64,-4.75,33.24,2.42
1037,Nishihara,1,JP,2019-03-23,74,35.74,139.53,5.0,2.32
1038,Taicheng,100,CN,2019-03-23,93,22.25,112.8,12.78,0.89
1039,Shumerlya,44,RU,2019-03-23,92,55.5,46.42,-0.06,2.42
1040,Yola,24,NG,2019-03-23,44,9.26,12.45,31.54,1.22
1041,Shu,92,KZ,2019-03-23,30,43.6,73.76,12.09,4.52
1042,Matagami,24,NG,2019-03-23,42,9.67,8.4,28.99,1.97
1043,Lishu,0,CN,2019-03-23,69,43.31,124.32,-3.21,7.02
1044,Maningrida,8,AU,2019-03-23,81,-12.05,134.23,29.19,6.77
1045,La Paz,5,MX,2019-03-23,33,24.15,-110.32,23.0,7.2
1046,Beroroha,56,MG,2019-03-23,95,-21.68,45.17,21.24,2.67
1047,San Luis,24,AR,2019-03-23,39,-33.3,-66.34,28.94,2.27
1048,Ringas,0,IN,2019-03-23,27,27.37,75.57,25.0,2.6
1049,Aktau,0,KZ,2019-03-23,80,43.65,51.16,5.0,3.0
1050,Cacu,0,BR,2019-03-23,67,-18.56,-51.13,29.54,3.67
1051,Khovu-Aksy,0,RU,2019-03-23,64,51.13,93.72,-13.66,1.47
1052,Mazamari,64,PE,2019-03-23,91,-11.33,-74.53,21.99,1.12
1053,Patos de Minas,68,BR,2019-03-23,61,-18.6,-46.51,25.56,0.45
1054,Brae,0,GB,2019-03-23,70,60.4,-1.35,7.0,10.3
1055,Labis,0,MY,2019-03-23,90,2.38,103.02,22.24,1.07
1056,Sao Miguel do Araguaia,32,BR,2019-03-23,100,-13.28,-50.16,27.94,1.87
1057,Alekseyevsk,44,RU,2019-03-23,68,57.84,108.35,-5.61,2.97
1058,Mayo,90,CA,2019-03-23,52,63.59,-135.9,7.0,5.1
1059,Aviles,0,ES,2019-03-23,76,43.55,-5.92,14.44,2.6
1060,Takaka,0,NZ,2019-03-23,95,-40.86,172.81,17.78,1.87
1061,Tuxtla,75,MX,2019-03-23,61,20.0,-97.65,27.0,2.6
1062,Jiaozuo,8,CN,2019-03-23,60,35.21,113.25,-2.41,0.72
1063,Mabaruma,44,GY,2019-03-23,75,8.2,-59.78,27.99,3.57
1064,Estelle,90,US,2019-03-23,64,32.87,-97.01,21.0,8.7
1065,Jalu,8,LY,2019-03-23,43,29.03,21.55,21.84,6.17
1066,Niort,0,FR,2019-03-23,62,46.32,-0.46,15.0,2.1
1067,Maun,0,BW,2019-03-23,37,-19.99,23.42,29.0,3.1
1068,Severodvinsk,90,RU,2019-03-23,86,64.56,39.82,1.0,6.0
1069,Kangaatsiaq,56,GL,2019-03-23,100,68.31,-53.46,-19.56,6.92
1070,Along,76,IN,2019-03-23,95,28.17,94.8,11.74,0.77
1071,Omsukchan,0,RU,2019-03-23,36,62.53,155.8,-25.01,1.12
1072,Paciran,56,ID,2019-03-23,95,-6.9,112.33,23.59,1.17
1073,Songea,40,TZ,2019-03-23,68,-10.68,35.65,21.0,3.1
1074,Dakar,20,SN,2019-03-23,64,14.69,-17.45,22.0,8.2
1075,Tera,20,CY,2019-03-23,87,34.97,32.42,16.0,3.1
1076,Mozarlandia,32,BR,2019-03-23,92,-14.74,-50.57,28.89,1.97
1077,Ayodhya,0,IN,2019-03-23,30,26.8,82.21,22.19,4.77
1078,Praia,75,BR,2019-03-23,61,-20.25,-43.81,27.0,4.6
1079,Arbagar,0,RU,2019-03-23,54,51.94,116.28,-7.06,4.22
1080,Akhmeta,90,GE,2019-03-23,70,42.03,45.21,6.0,8.7
1081,Aitape,32,PG,2019-03-23,94,-3.15,142.36,26.89,4.57
1082,Maniwaki,0,CA,2019-03-23,42,46.38,-75.98,-0.26,4.32
1083,Lat Yao,0,TH,2019-03-23,59,15.75,99.79,27.78,2.92
1084,Mogadouro,24,PT,2019-03-23,29,41.34,-6.71,18.19,3.87
1085,Plettenberg Bay,12,ZA,2019-03-23,93,-34.05,23.37,21.24,2.77
1086,Vazante,56,BR,2019-03-23,77,-17.99,-46.9,25.79,3.57
1087,Qeshm,90,IR,2019-03-23,88,26.96,56.27,20.0,2.1
1088,Luan,0,CH,2019-03-23,48,46.36,6.98,14.0,1.0
1089,Hailar,0,CN,2019-03-23,55,49.2,119.7,-3.16,5.57
1090,Hohhot,0,CN,2019-03-23,52,40.81,111.65,-7.0,2.0
1091,Iralaya,40,HN,2019-03-23,51,15.0,-83.23,29.0,2.6
1092,Santa Cruz,40,US,2019-03-23,28,36.97,-122.03,16.67,3.6
1093,Lebanon,20,US,2019-03-23,64,43.64,-72.25,4.44,3.6
1094,Zimmi,20,SL,2019-03-23,52,7.31,-11.31,32.24,1.67
1095,Moskovskiy,0,RU,2019-03-23,55,55.6,37.35,3.0,1.0
1096,Eslov,0,SE,2019-03-23,75,55.84,13.3,7.0,4.1
1097,Batagay,48,RU,2019-03-23,41,67.65,134.64,-25.51,1.22
1098,Paragominas,68,BR,2019-03-23,84,-3.0,-47.35,28.49,2.42
1099,Nsanje,92,MZ,2019-03-23,98,-16.92,35.26,23.14,2.42
1100,Dzhebariki-Khaya,8,RU,2019-03-23,43,62.22,135.8,-26.16,1.07
1101,Bouna,0,CI,2019-03-23,25,9.27,-3.0,34.99,1.22
1102,El Dorado,0,VE,2019-03-23,36,6.71,-61.64,33.49,2.32
1103,Marakkanam,0,IN,2019-03-23,100,12.2,79.95,25.89,4.07
1104,Yumen,0,CN,2019-03-23,62,40.29,97.04,-4.56,3.02
1105,Barinas,0,VE,2019-03-23,35,8.64,-70.23,35.69,4.37
1106,San Luis Obispo,90,US,2019-03-23,82,35.28,-120.66,16.11,2.1
1107,Kolondieba,92,ML,2019-03-23,24,11.09,-6.89,35.84,1.42
1108,Polewali,12,ID,2019-03-23,90,-4.03,119.8,24.99,1.72
1109,Upington,12,ZA,2019-03-23,23,-28.46,21.24,31.0,2.1
1110,Campbell River,40,CA,2019-03-23,66,50.02,-125.24,11.0,2.6
1111,San Ramon,20,NI,2019-03-23,60,12.92,-85.84,24.44,6.2
1112,Ouesso,0,CG,2019-03-23,85,1.61,16.05,26.74,0.62
1113,Manta,0,RO,2019-03-23,54,45.1,24.1,7.94,2.12
1114,Sabya,0,YE,2019-03-23,78,16.19,43.1,24.04,1.42
1115,Zlynka,0,RU,2019-03-23,69,52.43,31.74,3.0,1.0
1116,Glendive,1,US,2019-03-23,66,47.11,-104.71,11.0,2.1
1117,Neiafu,75,TO,2019-03-23,94,-18.65,-173.98,21.0,6.72
1118,Alugan,20,PH,2019-03-23,95,12.22,125.48,24.64,5.47
1119,Karpogory,88,RU,2019-03-23,72,64.0,44.44,0.74,5.62
1120,Nikolayevsk-na-amure,0,RU,2019-03-23,52,53.14,140.72,-17.56,3.52
1121,Jiangyou,44,CN,2019-03-23,89,31.78,104.73,4.74,1.42
1122,General Roca,0,AR,2019-03-23,18,-39.03,-67.58,27.0,5.7
1123,Horki,8,BY,2019-03-23,79,54.29,30.98,0.74,1.52
1124,Mananjary,92,MG,2019-03-23,97,-19.16,46.8,16.59,1.32
1125,Saint-Louis,0,CH,2019-03-23,50,47.59,7.56,15.0,2.1
1126,Athabasca,8,CA,2019-03-23,82,54.72,-113.29,5.39,5.67
1127,Ugoofaaru,56,MV,2019-03-23,95,5.67,73.0,30.19,3.42
1128,Omboue,80,GA,2019-03-23,100,-1.57,9.26,26.49,4.57
1129,Broome,0,GB,2019-03-23,70,52.47,1.45,9.0,1.5
1130,Mindelo,0,PT,2019-03-23,42,41.31,-8.72,18.89,3.6
1131,Ibra,32,OM,2019-03-23,56,22.69,58.55,21.14,1.47
1132,Tanout,0,NE,2019-03-23,13,14.97,8.88,33.69,2.07
1133,Kalemie,20,CD,2019-03-23,100,-5.95,29.2,25.29,0.17
1134,Sibu,75,MY,2019-03-23,100,2.29,111.83,25.0,1.37
1135,Totness,1,US,2019-03-23,17,33.74,-80.8,21.11,3.1
1136,Seymchan,36,RU,2019-03-23,63,62.93,152.39,-16.41,1.27
1137,Catalina Foothills,1,US,2019-03-23,22,32.3,-110.92,21.67,2.1
1138,Sigulda,90,LV,2019-03-23,93,57.15,24.86,7.0,3.1
1139,Lodja,0,CD,2019-03-23,87,-3.52,23.6,23.14,1.32
1140,Presidente Olegario,88,BR,2019-03-23,61,-18.42,-46.42,25.56,0.45
1141,Leland,1,US,2019-03-23,53,41.61,-88.8,11.67,3.6
1142,Arucas,20,ES,2019-03-23,63,28.12,-15.52,18.89,9.3
1143,La Tuque,0,CA,2019-03-23,50,47.44,-72.79,0.89,5.37
1144,Bagdarin,0,RU,2019-03-23,49,54.44,113.59,-10.26,3.67
1145,West Plains,40,US,2019-03-23,47,36.73,-91.85,16.11,4.6
1146,Honningsvag,0,NO,2019-03-23,88,70.98,25.97,-0.31,3.57
1147,Shimoni,0,KE,2019-03-23,100,-4.65,39.38,28.29,4.97
1148,Zhuhai,0,CN,2019-03-23,52,40.71,112.04,-7.0,2.0
1149,Oistins,20,BB,2019-03-23,58,13.07,-59.53,29.0,7.7
1150,Ratnagiri,0,IN,2019-03-23,100,16.98,73.3,26.09,4.77
1151,Soyo,92,AO,2019-03-23,99,-6.13,12.37,24.34,0.97
1152,Quelimane,75,MZ,2019-03-23,83,-17.88,36.89,27.0,3.6
1153,Hakkari,0,FI,2019-03-23,69,61.34,23.75,4.44,4.1
1154,Sistranda,75,NO,2019-03-23,90,63.73,8.83,2.78,21.6
1155,Las Margaritas,20,MX,2019-03-23,61,16.32,-91.98,22.04,1.42
1156,Verkhniye Kigi,20,RU,2019-03-23,73,55.41,58.6,-3.01,2.32
1157,Wilmington,1,US,2019-03-23,24,39.75,-75.55,10.56,5.7
1158,Chernyshevskiy,68,RU,2019-03-23,56,63.01,112.47,-14.71,3.67
1159,Barreirinha,68,BR,2019-03-23,84,-2.8,-57.07,28.24,1.42
1160,Yumbe,8,UG,2019-03-23,58,3.47,31.25,24.09,2.02
1161,Kirkwall,80,GB,2019-03-23,75,58.98,-2.96,6.0,8.2
1162,Suksun,68,RU,2019-03-23,89,57.15,57.4,-2.36,2.52
1163,Polovinnoye,48,RU,2019-03-23,61,54.79,65.99,-8.76,1.17
1164,Mao,40,DO,2019-03-23,45,19.55,-71.08,32.78,6.2
1165,Columbus,1,US,2019-03-23,17,32.46,-84.99,25.0,1.52
1166,Tezu,92,IN,2019-03-23,100,27.93,96.16,10.54,0.77
1167,Zhireken,0,RU,2019-03-23,53,52.82,117.29,-9.31,2.42
1168,Pangoa,32,PE,2019-03-23,92,-12.12,-73.0,22.44,1.07
1169,Gizo,20,IL,2019-03-23,87,31.8,34.94,16.11,1.5
1170,Sandwick,80,GB,2019-03-23,86,54.57,-2.89,7.22,5.1
1171,Gasa,0,BT,2019-03-23,40,27.91,89.73,-21.66,0.97
1172,Norden,40,DE,2019-03-23,81,53.59,7.21,6.67,2.1
1173,Evans,90,US,2019-03-23,50,40.38,-104.69,11.11,4.6
1174,Suihua,32,CN,2019-03-23,76,46.64,126.99,-8.16,5.82
1175,Belmonte,12,PT,2019-03-23,58,40.36,-7.35,13.89,2.67
1176,Kloulklubed,40,PW,2019-03-23,88,7.04,134.26,24.0,5.27
1177,Ryabovo,88,RU,2019-03-23,10,60.34,28.99,2.22,5.57
1178,Jiaohe,8,CN,2019-03-23,71,43.72,127.34,-11.21,2.52
1179,Dwarka,0,IN,2019-03-23,53,28.58,77.04,22.0,4.1
1180,Barra de Sao Francisco,92,BR,2019-03-23,74,-18.75,-40.89,25.34,4.32
1181,Mogok,0,MM,2019-03-23,87,22.92,96.51,15.19,0.87
1182,Aripuana,64,BR,2019-03-23,82,-9.17,-60.63,28.09,0.97
1183,Mikun,48,RU,2019-03-23,90,62.35,50.08,-0.56,4.72
1184,Pljevlja,0,ME,2019-03-23,70,43.36,19.36,6.0,1.5
1185,Pangody,88,RU,2019-03-23,89,65.85,74.49,-3.51,2.87
1186,Honavar,0,IN,2019-03-23,99,14.28,74.45,24.84,1.97
1187,Chik,32,RU,2019-03-23,72,54.99,82.44,0.0,3.0
1188,Aksu,40,KZ,2019-03-23,100,52.04,76.93,-2.0,1.0
1189,Rockhampton,40,AU,2019-03-23,94,-23.38,150.51,22.0,0.5
1190,Hirado,0,JP,2019-03-23,46,33.32,129.49,8.89,2.24
1191,Altamont,1,CA,2019-03-23,65,49.4,-98.5,8.89,3.6
1192,Kailua,75,US,2019-03-23,73,21.39,-157.74,25.0,2.1
1193,Talcahuano,20,CL,2019-03-23,68,-36.72,-73.12,21.0,7.7
1194,Mogwase,44,ZA,2019-03-23,51,-25.28,27.22,23.44,1.92
1195,Tocopilla,0,CL,2019-03-23,87,-22.09,-70.2,20.64,2.22
1196,Tutoia,40,BR,2019-03-23,55,-2.76,-42.27,31.0,4.6
1197,Goya,0,AR,2019-03-23,74,-29.14,-59.27,25.84,1.87
1198,Vila do Maio,20,CV,2019-03-23,47,15.13,-23.22,25.0,8.7
1199,Mustasaari,24,FI,2019-03-23,60,63.17,21.67,4.44,4.1
1200,Alice Springs,0,AU,2019-03-23,42,-23.7,133.88,29.0,4.1
1201,Ponnani,20,IN,2019-03-23,78,10.77,75.93,28.0,1.0
1202,Yenagoa,32,NG,2019-03-23,68,4.92,6.26,28.19,3.77
1203,Gao,88,ML,2019-03-23,15,16.28,-0.04,32.99,3.57
1204,Nampula,75,MZ,2019-03-23,88,-15.12,39.26,26.0,2.6
1205,Huejuquilla el Alto,0,MX,2019-03-23,31,22.63,-103.9,19.69,1.42
1206,Virginia Beach,1,US,2019-03-23,22,36.85,-75.98,16.11,6.7
1207,Pimentel,48,BR,2019-03-23,77,-3.7,-45.5,29.54,2.12
1208,Jinhua,12,CN,2019-03-23,72,29.11,119.65,2.84,1.87
1209,Cartagena,20,ES,2019-03-23,82,37.63,-1.0,16.0,5.1
1210,Camp Verde,1,US,2019-03-23,39,34.56,-111.85,16.67,3.1
1211,Juba,92,EE,2019-03-23,93,57.82,26.93,6.0,7.2
1212,Florianopolis,20,BR,2019-03-23,65,-27.6,-48.55,27.22,5.1
1213,Liverpool,0,GB,2019-03-23,77,53.41,-2.98,8.0,2.6
1214,Eregli,68,TR,2019-03-23,78,37.51,34.05,3.99,1.97
1215,Phan Thiet,56,VN,2019-03-23,95,10.93,108.1,26.59,5.22
1216,Nieuw Amsterdam,40,SR,2019-03-23,58,5.88,-55.08,31.11,5.1
1217,Pop,24,UZ,2019-03-23,75,40.87,71.1,8.0,4.1
1218,Mati,75,PH,2019-03-23,78,6.96,126.21,26.0,3.6
1219,Leticia,75,CO,2019-03-23,78,-4.21,-69.94,28.0,4.1
1220,Carbonia,0,IT,2019-03-23,71,39.17,8.53,15.0,3.1
1221,Sulangan,8,PH,2019-03-23,100,11.14,123.72,26.59,7.92
1222,Requena,0,ES,2019-03-23,55,39.49,-1.1,16.0,1.5
1223,Garowe,0,SO,2019-03-23,56,8.41,48.48,26.39,5.67
1224,Kjollefjord,0,NO,2019-03-23,73,70.95,27.35,-2.56,2.52
1225,Rusera,0,IN,2019-03-23,38,25.75,86.02,22.94,5.02
1226,Anlu,12,CN,2019-03-23,84,31.26,113.68,2.39,1.12
